站名,座標,緯度,經度
五塊厝,24.87287+121.26279,24.87287,121.26279
三石里,25.07615+121.25319,25.07615,121.25319
楊梅高中,24.92155+121.14631,24.92155,121.14631
華勛街141巷,24.95035+121.26013,24.95035,121.26013
五號坡,24.99881+121.19413,24.99881,121.19413
高新街口,24.92492+121.14529,24.92492,121.14529
水圳頭,24.98387+121.20736,24.98387,121.20736
上公西,25.06395+121.36101,25.06395,121.36101
捷運新莊站(地政事務所),25.03698+121.45197,25.03698,121.45197
梅高路二段49巷,24.9374+121.14459,24.9374,121.14459
松鏡社區,24.94097+121.14664,24.94097,121.14664
顯伯公,24.94647+121.14508,24.94647,121.14508
拔仔林,25.07795+121.25707,25.07795,121.25707
和平路645巷,24.94738+121.13573,24.94738,121.13573
大眾駕訓班,24.94305+121.13195,24.94305,121.13195
上田里10鄰,24.93913+121.12812,24.93913,121.12812
上田國小,24.93737+121.126,24.93737,121.126
電研裕榮路,24.95645+121.16721,24.95645,121.16721
普仁(中原夜市),24.95396+121.23777,24.95396,121.23777
桃園監理站,24.97877+121.30405,24.97877,121.30405
育青駕訓班,24.97433+121.30546,24.97433,121.30546
建國國中,24.97767+121.30744,24.97767,121.30744
迴龍郵局,25.01672+121.40044,25.01672,121.40044
大慶蓮莊,25.01663+121.40071,25.01663,121.40071
半嶺一,25.002+121.35167,25.002,121.35167
地磅,24.99817+121.34444,24.99817,121.34444
武陵高中,24.98843+121.28526,24.98843,121.28526
趙厝,25.04648+121.26593,25.04648,121.26593
磚窯,24.93326+121.09377,24.93326,121.09377
聯華公司,24.93439+121.09135,24.93439,121.09135
福德,24.93508+121.08665,24.93508,121.08665
劉厝,25.03761+121.19434,25.03761,121.19434
富岡口,24.93504+121.0848,24.93504,121.0848
富岡,24.9347+121.08331,24.9347,121.08331
大井頭,24.93615+121.08257,24.93615,121.08257
新明,24.93551+121.08044,24.93551,121.08044
梅花新城,24.93169+121.07537,24.93169,121.07537
水塔,24.93049+121.07287,24.93049,121.07287
下埤,24.9306+121.0682,24.9306,121.0682
石埤,24.92939+121.06388,24.92939,121.06388
徐厝,24.92705+121.06154,24.92705,121.06154
高正鋼鐵,25.05009+121.38167,25.05009,121.38167
縣界,24.92516+121.06024,24.92516,121.06024
北門新村,25.00123+121.30995,25.00123,121.30995
前光華,24.66317+121.39864,24.66317,121.39864
桃園酒廠,25.05534+121.37605,25.05534,121.37605
蘆竹,25.04945+121.26616,25.04945,121.26616
蘆竹國小,25.05034+121.26679,25.05034,121.26679
理嘉公司,25.05292+121.26836,25.05292,121.26836
永豐餘,25.05439+121.26858,25.05439,121.26858
頂水尾,25.05575+121.26879,25.05575,121.26879
華夏公司,25.05787+121.26805,25.05787,121.26805
水尾(富國路三段),25.0616+121.26701,25.0616,121.26701
文化路717巷口,24.85145+121.24926,24.85145,121.24926
龍潭大池(神龍路),24.86228+121.21224,24.86228,121.21224
中正北龍路口(龍潭站),24.86772+121.21568,24.86772,121.21568
民權路口,24.95833+121.2176,24.95833,121.2176
北門口,24.99918+121.31088,24.99918,121.31088
五權國小,25.02334+121.23081,25.02334,121.23081
會稽國小後門,25.02125+121.31014,25.02125,121.31014
楊梅三民公園,24.90652+121.17409,24.90652,121.17409
竹圍福元宮,25.10717+121.24261,25.10717,121.24261
新莊國民運動中心,25.03964+121.45019,25.03964,121.45019
桃園公車站,24.99026+121.31202,24.99026,121.31202
聖保祿醫院,24.98156+121.31257,24.98156,121.31257
福德宮,24.96058+121.25287,24.96058,121.25287
萬壽茶專路口,25.00128+121.35447,25.00128,121.35447
龍安國小,24.99235+121.27158,24.99235,121.27158
高鐵桃園站,25.01391+121.21404,25.01391,121.21404
山鼻,25.0785+121.28563,25.0785,121.28563
下溪口台,24.80565+121.34529,24.80565,121.34529
李厝,25.02843+121.21281,25.02843,121.21281
六福油管路口,25.05833+121.29273,25.05833,121.29273
六福路口,25.05772+121.29084,25.05772,121.29084
新富站,24.93056+121.06675,24.93056,121.06675
楊梅工業區,24.9096+121.17259,24.9096,121.17259
怡聯貨櫃場,24.91646+121.17574,24.91646,121.17574
上湖二路埤塘,24.9014+121.09006,24.9014,121.09006
篤行五村,24.96474+121.26237,24.96474,121.26237
中正國小,24.96278+121.2618,24.96278,121.2618
保和中藥,25.06432+121.19712,25.06432,121.19712
榮民永褔路口,24.96026+121.26099,24.96026,121.26099
紅透天社區,24.96221+121.26019,24.96221,121.26019
榮民路165巷口,24.96655+121.26089,24.96655,121.26089
高鐵南中正路口站,24.98522+121.18704,24.98522,121.18704
阿姆坪碼頭,24.81586+121.30454,24.81586,121.30454
桃園北區客家會館,24.9339+121.26094,24.9339,121.26094
尖山路300號,24.94425+121.34061,24.94425,121.34061
尖山路300-3號,24.94409+121.34039,24.94409,121.34039
經國轉運站(水汴一路口),25.03223+121.30036,25.03223,121.30036
舒潔公司,25.07537+121.18755,25.07537,121.18755
華通公司,25.07663+121.18574,25.07663,121.18574
大同宿舍,25.08021+121.18563,25.08021,121.18563
許厝,25.0822+121.18552,25.0822,121.18552
鄭厝,25.08363+121.1869,25.08363,121.1869
內海社區,25.08453+121.18884,25.08453,121.18884
內海廟口,25.08506+121.18981,25.08506,121.18981
崙腳,25.07982+121.18256,25.07982,121.18256
汽電公司,25.07795+121.17542,25.07795,121.17542
潮音橋頭,25.07861+121.17336,25.07861,121.17336
潮音廟口,25.07664+121.1695,25.07664,121.1695
公西站(華亞園區),25.05299+121.37433,25.05299,121.37433
下厝,25.07702+121.18045,25.07702,121.18045
頂圳股,25.07299+121.20564,25.07299,121.20564
光裕,25.07725+121.35578,25.07725,121.35578
上海路口,24.91131+121.20609,24.91131,121.20609
游泳路口,24.92811+121.2371,24.92811,121.2371
長祥宮,24.9604+121.11719,24.9604,121.11719
祥安國小,24.89448+121.20393,24.89448,121.20393
戴厝,25.07702+121.20368,25.07702,121.20368
下巴陵,24.67988+121.384,24.67988,121.384
坡腳,25.07882+121.20276,25.07882,121.20276
角板山公園,24.81863+121.35068,24.81863,121.35068
水源地,24.82449+121.35429,24.82449,121.35429
小烏來,24.79098+121.37823,24.79098,121.37823
文化二路,25.05348+121.37018,25.05348,121.37018
大崗國中,25.05246+121.37124,25.05246,121.37124
青山路,25.02756+121.41018,25.02756,121.41018
三重客運迴龍站,25.01578+121.39453,25.01578,121.39453
公園路口,25.05636+121.36777,25.05636,121.36777
福山廣大路口,25.02962+121.15107,25.02962,121.15107
福德寺,25.08421+121.1983,25.08421,121.1983
廣福社區活動中心,25.01872+121.15417,25.01872,121.15417
頂古亭,25.08657+121.19717,25.08657,121.19717
上北湖,25.00707+121.04522,25.00707,121.04522
秀才步道,24.88901+121.13407,24.88901,121.13407
海湖路口,25.08838+121.19836,25.08838,121.19836
圳頭厝,25.08906+121.19964,25.08906,121.19964
呂厝,25.07372+121.20881,25.07372,121.20881
下古亭,25.09281+121.20406,25.09281,121.20406
樂學二三路口,25.05104+121.38319,25.05104,121.38319
樂善國小,25.05198+121.38425,25.05198,121.38425
文達樂學路口,25.05116+121.38627,25.05116,121.38627
忠義路宏洲街口,25.00997+121.34556,25.00997,121.34556
土地公,24.94781+121.26024,24.94781,121.26024
文化街,24.9504+121.20337,24.9504,121.20337
延平路三段(宋屋國小),24.94089+121.20506,24.94089,121.20506
宋屋國小,24.9417+121.2056,24.9417,121.2056
新街國小,24.96397+121.22919,24.96397,121.22919
中壢戶政事務所,24.96284+121.23158,24.96284,121.23158
溪洲公園,24.81636+121.25278,24.81636,121.25278
中原,24.96612+121.2419,24.96612,121.2419
自立新村,24.96917+121.25024,24.96917,121.25024
捷運長庚醫院站,25.06007+121.37099,25.06007,121.37099
上內壢,24.97178+121.25561,24.97178,121.25561
管理中心,25.05735+121.37359,25.05735,121.37359
永強街口,24.97125+121.26065,24.97125,121.26065
中興路1436巷,24.95002+121.08582,24.95002,121.08582
樂善公園,25.05476+121.38272,25.05476,121.38272
自強國中,24.96859+121.26068,24.96859,121.26068
陸光新村,24.96602+121.25939,24.96602,121.25939
環中榮安一街口,24.96346+121.25687,24.96346,121.25687
環中愛樂,24.9625+121.25565,24.9625,121.25565
六和汽車,24.95854+121.25014,24.95854,121.25014
慈濟志業園區,24.95516+121.24561,24.95516,121.24561
實踐路口,24.95331+121.24271,24.95331,121.24271
莒光公園,24.94889+121.23622,24.94889,121.23622
昆明街口,24.94718+121.23368,24.94718,121.23368
龍岡路口,24.94485+121.22992,24.94485,121.22992
林森路口,24.9433+121.22763,24.9433,121.22763
福安宮,25.0302+121.40042,25.0302,121.40042
自忠二街口,24.942+121.22565,24.942,121.22565
平鎮高中,24.94024+121.21913,24.94024,121.21913
平鎮地政事務所,24.94043+121.21498,24.94043,121.21498
聯新國際醫院,24.9467+121.20516,24.9467,121.20516
博愛路口,24.99408+121.30806,24.99408,121.30806
民族路口,24.99092+121.30956,24.99092,121.30956
沙崙廟,25.09337+121.22364,25.09337,121.22364
沙崙,25.0939+121.22192,25.0939,121.22192
出水坑,25.11667+121.28673,25.11667,121.28673
廣興路口,24.96069+121.28152,24.96069,121.28152
河川教育中心,24.95497+121.21918,24.95497,121.21918
下寮,25.11787+121.29182,25.11787,121.29182
山葉社區,24.92339+121.05903,24.92339,121.05903
仁美里,24.9448+121.25953,24.9448,121.25953
六泰新村,24.94547+121.24747,24.94547,121.24747
新屋區公所,24.97269+121.10555,24.97269,121.10555
新屋區農會,24.97217+121.10739,24.97217,121.10739
新屋分院,24.96923+121.10725,24.96923,121.10725
新屋國中,24.97044+121.10147,24.97044,121.10147
聖心幼兒園,24.97248+121.10331,24.97248,121.10331
中山路,24.97047+121.11298,24.97047,121.11298
莊敬村,24.90165+121.21133,24.90165,121.21133
第一銀行,24.95525+121.22195,24.95525,121.22195
天水行,24.97347+121.09969,24.97347,121.09969
三民路,24.97189+121.09925,24.97189,121.09925
豫章加油站,24.96989+121.10015,24.96989,121.10015
金百利公司,24.96877+121.1001,24.96877,121.1001
東明里一鄰,24.96636+121.09852,24.96636,121.09852
新屋工業區,24.96184+121.09432,24.96184,121.09432
泰安碾米廠,24.95651+121.08902,24.95651,121.08902
社子農會,24.95482+121.08665,24.95482,121.08665
社子里十鄰,24.95135+121.08559,24.95135,121.08559
民有路口,24.94834+121.08679,24.94834,121.08679
富岡活動中心,24.94253+121.08774,24.94253,121.08774
伯公岡公園,24.93814+121.08456,24.93814,121.08456
富岡火車站,24.93497+121.08309,24.93497,121.08309
銀店,24.96393+121.09629,24.96393,121.09629
幼獅路三段416巷,24.9302+121.15025,24.9302,121.15025
幼獅路三段85巷,24.93358+121.15867,24.93358,121.15867
南高山,24.93587+121.1624,24.93587,121.1624
五權,25.02562+121.23046,25.02562,121.23046
中壢客運中壢總站,24.95346+121.22429,24.95346,121.22429
高榮國小,24.93675+121.16476,24.93675,121.16476
高榮路242巷,24.94557+121.16173,24.94557,121.16173
萬通加油站,24.94725+121.1652,24.94725,121.1652
一真宮,24.9508+121.16605,24.9508,121.16605
環中東路口,24.95082+121.24095,24.95082,121.24095
行政執行處,25.01922+121.29694,25.01922,121.29694
寶慶路口,25.00975+121.2956,25.00975,121.2956
大興敦煌,25.00755+121.2954,25.00755,121.2954
大千社區,24.94519+121.28831,24.94519,121.28831
大庄,24.94064+121.28793,24.94064,121.28793
大溪站,24.8797+121.2904,24.8797,121.2904
大雅新城,24.9382+121.28822,24.9382,121.28822
崙子,24.9349+121.28753,24.9349,121.28753
崙子路口,24.93308+121.28632,24.93308,121.28632
八德教養院,24.93182+121.28508,24.93182,121.28508
興豐路口,24.9322+121.29859,24.9322,121.29859
榮民安養中心,24.93666+121.30578,24.93666,121.30578
榮民之家,24.93819+121.30828,24.93819,121.30828
城仔頂,24.9435+121.31405,24.9435,121.31405
北水局,24.83672+121.24069,24.83672,121.24069
羊稠仔,24.94702+121.3176,24.94702,121.3176
瑞聯社區,24.9498+121.31841,24.9498,121.31841
惠爾得公司,24.95784+121.30755,24.95784,121.30755
冠城別墅,24.97115+121.30692,24.97115,121.30692
統領百貨,24.99134+121.31224,24.99134,121.31224
中央大學正門,24.96827+121.20039,24.96827,121.20039
關爺南路158巷,24.92616+121.21903,24.92616,121.21903
中壢公車站,24.95425+121.22378,24.95425,121.22378
草仔坡,25.03359+121.19544,25.03359,121.19544
陽光學園,24.90668+121.17044,24.90668,121.17044
大湖紀念公園,25.05678+121.35727,25.05678,121.35727
六和機械,24.9827+121.2226,24.9827,121.2226
桃園國際棒球場,24.9976+121.19969,24.9976,121.19969
高鐵南永興路口,25.00733+121.2091,25.00733,121.2091
鴻昌社區,24.94997+121.2979,24.94997,121.2979
梅花社區,24.94426+121.2974,24.94426,121.2974
欣桃社區,24.94127+121.29749,24.94127,121.29749
埔頂坡,25.0296+121.19576,25.0296,121.19576
瑞豐國小(桃園防災教育館),24.93653+121.29738,24.93653,121.29738
更寮腳(介壽路),24.93072+121.29724,24.93072,121.29724
忠誠新村,24.92667+121.29659,24.92667,121.29659
介壽豐德路口,24.9253+121.29455,24.9253,121.29455
陸光四村,24.96214+121.30003,24.96214,121.30003
大義里,24.96369+121.30327,24.96369,121.30327
公坡,24.97032+121.22388,24.97032,121.22388
水尾,24.99215+121.22174,24.99215,121.22174
柴梳崙,25.02643+121.19505,25.02643,121.19505
高山腳,24.95755+121.19373,24.95755,121.19373
大成龍門社區,24.96334+121.30584,24.96334,121.30584
瑞祥社區,24.95228+121.29845,24.95228,121.29845
聖德基督學院,24.98495+121.22233,24.98495,121.22233
橡樹公司,24.96234+121.15938,24.96234,121.15938
雙塘屋,24.96245+121.15803,24.96245,121.15803
興南,24.97694+121.22281,24.97694,121.22281
草厝,25.02335+121.19389,25.02335,121.19389
興南國中,24.97409+121.2233,24.97409,121.2233
興國里,24.96884+121.22374,24.96884,121.22374
中壢國中(延平路),24.95151+121.21946,24.95151,121.21946
中厝,25.03139+121.24149,25.03139,121.24149
大千里,24.9607+121.30665,24.9607,121.30665
徐屋,24.94816+121.09222,24.94816,121.09222
花園新城,24.95997+121.18712,24.95997,121.18712
營房前,24.95971+121.18492,24.95971,121.18492
盛貿工廠,24.95903+121.1823,24.95903,121.1823
幸福社區,24.95805+121.16689,24.95805,121.16689
草席厝,25.01836+121.19385,25.01836,121.19385
寶祥,24.96188+121.16118,24.96188,121.16118
富泰公司,24.96356+121.15401,24.96356,121.15401
上富源,24.9647+121.15213,24.9647,121.15213
二坪,24.82582+121.24515,24.82582,121.24515
幸福十五街,24.98589+121.33662,24.98589,121.33662
幸福二十三街,24.98556+121.3379,24.98556,121.3379
幸福二十九街,24.98816+121.33805,24.98816,121.33805
幸福七街,24.98607+121.33527,24.98607,121.33527
大稻埕,25.01622+121.19426,25.01622,121.19426
幸福一街,24.98655+121.33385,24.98655,121.33385
幸福活動中心,24.98784+121.33425,24.98784,121.33425
福安三街口,24.96726+121.23085,24.96726,121.23085
中福市場,24.96808+121.23358,24.96808,121.23358
幸葉公司,24.97158+121.23878,24.97158,121.23878
憶華公司,24.97249+121.24226,24.97249,121.24226
公園都市,25.01553+121.31695,25.01553,121.31695
中正商業大樓,25.00135+121.30678,25.00135,121.30678
北埔路口,25.00313+121.30563,25.00313,121.30563
永昌新城,25.01965+121.30073,25.01965,121.30073
紅土墩,25.01279+121.19553,25.01279,121.19553
臺北商業大學(桃園校區),24.90259+121.23061,24.90259,121.23061
茶業改良場,24.91251+121.18766,24.91251,121.18766
南平路二段516巷,24.92196+121.1925,24.92196,121.1925
長庚里第六站,25.06004+121.3841,25.06004,121.3841
復興中正路口(桃園火車站),24.99069+121.31378,24.99069,121.31378
天堂鳥社區,24.82122+121.2395,24.82122,121.2395
佳安,24.85922+121.25069,24.85922,121.25069
頂月眉,25.00681+121.19511,25.00681,121.19511
龍吟街口,24.85052+121.22784,24.85052,121.22784
高鐵橋下,24.92508+121.09659,24.92508,121.09659
墨爾本社區,24.92521+121.2915,24.92521,121.2915
廣興仁德路口,24.93567+121.2847,24.93567,121.2847
同安親子公園,25.01711+121.30254,25.01711,121.30254
泰祥宮,24.93773+121.10913,24.93773,121.10913
新富二街口,24.93521+121.09467,24.93521,121.09467
民生街375巷,24.94375+121.08778,24.94375,121.08778
立訊光電,24.93312+121.08717,24.93312,121.08717
富民街,24.9189+121.06912,24.9189,121.06912
慈文路口,25.01114+121.30872,25.01114,121.30872
經國大興路口,25.01431+121.3067,25.01431,121.3067
長榮加油站,25.03235+121.30054,25.03235,121.30054
亞建公司,25.03528+121.30012,25.03528,121.30012
下南崁,25.0532+121.28517,25.0532,121.28517
頂寮,25.12008+121.29545,25.12008,121.29545
莊敬路口,25.02211+121.29583,25.02211,121.29583
水碓,25.11406+121.30271,25.11406,121.30271
佳林,25.11143+121.30608,25.11143,121.30608
下福,25.11151+121.30939,25.11151,121.30939
圓光佛學院,25.00397+121.19462,25.00397,121.19462
慈湖,24.8405+121.29131,24.8405,121.29131
海湖橋,25.11145+121.2544,25.11145,121.2544
下海湖,25.11372+121.25249,25.11372,121.25249
關帝廟,24.99419+121.31296,24.99419,121.31296
大園農會,25.06265+121.20098,25.06265,121.20098
橫峰,25.06074+121.20593,25.06074,121.20593
橫山橋,25.05993+121.20884,25.05993,121.20884
海豐,25.05653+121.21694,25.05653,121.21694
快樂新村,25.05525+121.22115,25.05525,121.22115
第一市場,24.95551+121.22021,24.95551,121.22021
圓光寺,25.00173+121.19405,25.00173,121.19405
尊爵飯店,25.02408+121.29677,25.02408,121.29677
慈文國中,25.00919+121.30186,25.00919,121.30186
崎腳,25.02119+121.23872,25.02119,121.23872
大新路,25.02172+121.24131,25.02172,121.24131
新庄村,25.02444+121.24705,25.02444,121.24705
開南大學,25.01081+121.2704,25.01081,121.2704
新生路,24.95919+121.22269,24.95919,121.22269
中美路口,24.96017+121.22297,24.96017,121.22297
新湖國小,24.90413+121.04807,24.90413,121.04807
貴州新村,24.90456+121.0528,24.90456,121.0528
圳頭,24.90518+121.05573,24.90518,121.05573
四湖橋,24.90619+121.05817,24.90619,121.05817
下四湖,24.90959+121.06498,24.90959,121.06498
四湖,24.91154+121.06985,24.91154,121.06985
土牛坡,24.91181+121.07246,24.91181,121.07246
大路下,24.99321+121.19379,24.99321,121.19379
周厝,24.91208+121.07684,24.91208,121.07684
陳厝,24.91221+121.07928,24.91221,121.07928
上四湖,24.91242+121.08866,24.91242,121.08866
上湖,24.91278+121.0946,24.91278,121.0946
三湖,24.91433+121.09996,24.91433,121.09996
彭厝,24.92273+121.13285,24.92273,121.13285
水門,24.98903+121.19337,24.98903,121.19337
新和公司,24.91392+121.10418,24.91392,121.10418
二湖,24.91307+121.10657,24.91307,121.10657
長坡,24.91202+121.11107,24.91202,121.11107
紅坡,24.91231+121.11518,24.91231,121.11518
頭湖,24.91113+121.12041,24.91113,121.12041
林口國宅,25.07257+121.37496,25.07257,121.37496
泉水,24.91228+121.12297,24.91228,121.12297
惠普公司,24.91314+121.12647,24.91314,121.12647
厚恒公司,24.91302+121.12872,24.91302,121.12872
嶺頭,24.91193+121.13379,24.91193,121.13379
水美新村,24.911+121.13628,24.911,121.13628
圓岡,24.90911+121.13954,24.90911,121.13954
錫褔宮,24.90658+121.14107,24.90658,121.14107
大成路,24.9085+121.14562,24.9085,121.14562
大同社區,24.85945+121.21861,24.85945,121.21861
都會族公司,24.98583+121.19355,24.98583,121.19355
六股橋,24.92118+121.05728,24.92118,121.05728
山葉機車,24.92039+121.05576,24.92039,121.05576
中國科技大學,24.9196+121.05476,24.9196,121.05476
和興新村,24.91813+121.05347,24.91813,121.05347
九股埤,24.91477+121.05157,24.91477,121.05157
上和興,24.91206+121.05054,24.91206,121.05054
愛勢橋,24.9098+121.0496,24.9098,121.0496
南通廠,24.90771+121.04832,24.90771,121.04832
城市大亨,25.01198+121.29932,25.01198,121.29932
同德七街口,25.01384+121.29396,25.01384,121.29396
中國龍社區,25.01472+121.29207,25.01472,121.29207
廣濟橋,24.98431+121.19357,24.98431,121.19357
南平路口,25.01569+121.29156,25.01569,121.29156
中國江山,25.01866+121.29032,25.01866,121.29032
日昇大道,25.02024+121.2897,25.02024,121.2897
新宙公司,24.99488+121.22037,24.99488,121.22037
青埔,25.00522+121.21502,25.00522,121.21502
寶慶安慶街口,25.01759+121.29082,25.01759,121.29082
埔子,25.00857+121.28937,25.00857,121.28937
中埔國小,25.00913+121.28739,25.00913,121.28739
星見橋,25.00994+121.28226,25.00994,121.28226
十三號坡,25.01046+121.28032,25.01046,121.28032
五權牧場,25.0278+121.23044,25.0278,121.23044
仁德新村,24.98169+121.1942,24.98169,121.1942
三和公司,25.01128+121.27761,25.01128,121.27761
上興路口,25.01942+121.26466,25.01942,121.26466
大竹消防隊,25.01882+121.26152,25.01882,121.26152
京采故鄉,25.01901+121.25708,25.01901,121.25708
大福路口,25.02067+121.25887,25.02067,121.25887
胡厝,25.02493+121.25285,25.02493,121.25285
新明路口,24.95708+121.2137,24.95708,121.2137
元化路口,24.96188+121.2231,24.96188,121.2231
和平市場,24.94837+121.22131,24.94837,121.22131
陳康國小,25.05979+121.23119,25.05979,121.23119
平鎮區公所,24.94278+121.21649,24.94278,121.21649
中華電信,24.9409+121.21893,24.9409,121.21893
平鎮高中(德育路二段),24.93879+121.21832,24.93879,121.21832
崁腳廟,25.05507+121.1966,25.05507,121.1966
關爺北路140巷,24.93329+121.2174,24.93329,121.2174
關爺北路36巷,24.93171+121.21815,24.93171,121.21815
關爺西路,24.9315+121.21679,24.9315,121.21679
台電平鎮服務所,24.92754+121.21328,24.92754,121.21328
南勢,24.91481+121.21045,24.91481,121.21045
南勢國小,24.91282+121.21059,24.91282,121.21059
平南國中,24.90927+121.21133,24.90927,121.21133
三興路,24.90743+121.21262,24.90743,121.21262
頂崁腳,25.05073+121.19843,25.05073,121.19843
莊敬公園,24.90422+121.21699,24.90422,121.21699
福德路,24.90304+121.21696,24.90304,121.21696
福林宮,24.90237+121.21699,24.90237,121.21699
福林里,24.90108+121.21551,24.90108,121.21551
山豐國小,24.90079+121.21332,24.90079,121.21332
山仔頂,24.89949+121.21075,24.89949,121.21075
居安新村,24.9598+121.21075,24.9598,121.21075
懷寧醫院(志廣路),24.96133+121.2065,24.96133,121.2065
三民,24.96512+121.20426,24.96512,121.20426
頂莊,25.04842+121.19864,25.04842,121.19864
錩新公司,24.98057+121.19263,24.98057,121.19263
內厝里,24.98531+121.18627,24.98531,121.18627
大崙農會,24.98722+121.18329,24.98722,121.18329
新剛公司,24.99041+121.17712,24.99041,121.17712
中福,24.99122+121.17506,24.99122,121.17506
井子厝,24.99215+121.1728,24.99215,121.1728
山東路口,24.99271+121.17073,24.99271,121.17073
王爺公,25.04234+121.19861,25.04234,121.19861
福山路口,24.99339+121.16866,24.99339,121.16866
忠愛莊,24.99413+121.16663,24.99413,121.16663
忠愛新村,24.99585+121.16364,24.99585,121.16364
崙坪,24.99727+121.16163,24.99727,121.16163
圓山,24.99923+121.1586,24.99923,121.1586
頂大崛,25.00322+121.15242,25.00322,121.15242
大崛,25.00477+121.14993,25.00477,121.14993
頂大同,25.00679+121.14617,25.00679,121.14617
照鏡,25.0396+121.19994,25.0396,121.19994
大同,25.00948+121.14158,25.00948,121.14158
新坡農會,25.01097+121.13933,25.01097,121.13933
新坡,25.01252+121.13685,25.01252,121.13685
觀音高中,25.01399+121.13331,25.01399,121.13331
新坡國中,25.01455+121.1331,25.01455,121.1331
高緯公司,25.00906+121.1341,25.00906,121.1341
經國麗品,25.01257+121.30772,25.01257,121.30772
環北路口,24.96547+121.22343,24.96547,121.22343
游厝,25.02891+121.24387,25.02891,121.24387
新檜溪橋,25.00718+121.31173,25.00718,121.31173
變電所,24.96695+121.22369,24.96695,121.22369
三民民生路口,25.00023+121.31129,25.00023,121.31129
六和紡織,24.9802+121.22269,24.9802,121.22269
基督學院,24.98506+121.22247,24.98506,121.22247
新宙,24.99484+121.22034,24.99484,121.22034
頂青埔,24.99992+121.21777,24.99992,121.21777
青埔社區,25.00182+121.21588,25.00182,121.21588
民生社區,25.01748+121.21797,25.01748,121.21797
三陽公司,25.02051+121.21384,25.02051,121.21384
慶皇公司,25.02374+121.21395,25.02374,121.21395
頂橫山,25.0261+121.21347,25.0261,121.21347
青埔花墅,25.03183+121.21221,25.03183,121.21221
橫山,25.03475+121.21262,25.03475,121.21262
大坡腳,25.04222+121.21181,25.04222,121.21181
下大坡腳,25.04567+121.21194,25.04567,121.21194
統帥社區,25.05002+121.20951,25.05002,121.20951
上湳子,25.05131+121.20962,25.05131,121.20962
湳子,25.05447+121.20717,25.05447,121.20717
尖山,25.05917+121.20208,25.05917,121.20208
頂南門,25.06035+121.19885,25.06035,121.19885
南門,25.06355+121.19733,25.06355,121.19733
土地改革館,24.99158+121.29826,24.99158,121.29826
中山國小,24.98982+121.28814,24.98982,121.28814
埔頂,25.03069+121.20293,25.03069,121.20293
茄苳溪,24.98583+121.28071,24.98583,121.28071
中華路,24.98238+121.27688,24.98238,121.27688
安樂新村,24.91288+121.21075,24.91288,121.21075
中壢家商,24.95251+121.22056,24.95251,121.22056
龍樹坑,25.03208+121.23161,25.03208,121.23161
自來水廠,24.92974+121.19521,24.92974,121.19521
平鎮新村,24.92542+121.18941,24.92542,121.18941
瓦窯,25.00583+121.13061,25.00583,121.13061
小大湳,24.97045+121.30148,24.97045,121.30148
大湳站(G04),24.95898+121.29935,24.95898,121.29935
麻園站(G03),24.94776+121.29754,24.94776,121.29754
更寮腳(興豐路),24.93114+121.29634,24.93114,121.29634
聯福巷,24.93064+121.29379,24.93064,121.29379
八德國中,24.92936+121.28704,24.92936,121.28704
興仁永強街口,24.97123+121.2607,24.97123,121.2607
丹鳳一,25.02857+121.42004,25.02857,121.42004
通校,24.89525+121.21124,24.89525,121.21124
湧光里集會所,24.89603+121.20795,24.89603,121.20795
湧光路292巷,24.89327+121.20558,24.89327,121.20558
自由街55巷,24.89223+121.20422,24.89223,121.20422
頂好街,24.89584+121.19999,24.89584,121.19999
三民中山路口,24.99169+121.30633,24.99169,121.30633
桃園國中,24.99502+121.30598,24.99502,121.30598
大崛橋,25.00264+121.12569,25.00264,121.12569
幸福村,24.9998+121.12209,24.9998,121.12209
下青埔,24.99818+121.12041,24.99818,121.12041
藍埔,24.99674+121.11655,24.99674,121.11655
新華路,24.99496+121.11382,24.99496,121.11382
媽祖廟,24.99371+121.11201,24.99371,121.11201
樹仔腳,24.99147+121.11051,24.99147,121.11051
平均,24.98892+121.10814,24.98892,121.10814
飛泰公司,24.98676+121.10684,24.98676,121.10684
大嶺頂,24.9851+121.10595,24.9851,121.10595
香心坡,24.98269+121.10727,24.98269,121.10727
清華高中,24.98075+121.10736,24.98075,121.10736
天主堂,24.97471+121.10642,24.97471,121.10642
百侖大飯店,24.97281+121.10607,24.97281,121.10607
新屋郵局,24.97284+121.10443,24.97284,121.10443
新屋站,24.97291+121.1025,24.97291,121.1025
許厝港路口,25.07322+121.1725,25.07322,121.1725
巴黎富邑,25.01884+121.30463,25.01884,121.30463
經國南平路口,25.02089+121.30377,25.02089,121.30377
中悅春天,25.02312+121.30276,25.02312,121.30276
經國莊敬路口,25.02515+121.30183,25.02515,121.30183
經國轉運站(幸福路口),25.02788+121.30089,25.02788,121.30089
工業南路,24.89635+121.20137,24.89635,121.20137
土地銀行,24.90028+121.20828,24.90028,121.20828
湧豐里,24.90183+121.21152,24.90183,121.21152
華夏山莊,24.90389+121.21191,24.90389,121.21191
中豐路南勢二段460巷,24.90788+121.20997,24.90788,121.20997
秀窩福德祠,24.91002+121.20656,24.91002,121.20656
漢口街,24.91012+121.20452,24.91012,121.20452
下洽溪,25.02545+121.20248,25.02545,121.20248
福田農場,24.91037+121.20261,24.91037,121.20261
長沙街口,24.91142+121.2044,24.91142,121.2044
平鎮分局,24.91373+121.20641,24.91373,121.20641
城市之星,24.91674+121.20266,24.91674,121.20266
南京路,24.91641+121.20982,24.91641,121.20982
長壽新村,24.91812+121.21112,24.91812,121.21112
中豐路口,24.91953+121.21004,24.91953,121.21004
流廊坡,25.0224+121.20216,25.0224,121.20216
南平路121巷,24.91954+121.20784,24.91954,121.20784
技嘉科技,24.92036+121.20591,24.92036,121.20591
新光路三段,24.92267+121.2058,24.92267,121.2058
頭重溪,24.90876+121.17091,24.90876,121.17091
楊明國中,24.91063+121.15657,24.91063,121.15657
楊新北路,24.91274+121.1497,24.91274,121.1497
沙崙休憩場所,25.10961+121.23315,25.10961,121.23315
國際路三段,25.0951+121.23355,25.0951,121.23355
宋屋,24.94143+121.20548,24.94143,121.20548
大昌路口,24.94425+121.20777,24.94425,121.20777
中央大學依仁堂,24.96814+121.19103,24.96814,121.19103
振聲中學,24.99124+121.30183,24.99124,121.30183
文山國小,24.99601+121.29228,24.99601,121.29228
文山國小(中興國中),24.99594+121.29189,24.99594,121.29189
文化局,24.99399+121.2996,24.99399,121.2996
合作金庫,24.99063+121.27971,24.99063,121.27971
土地公廟,24.96244+121.2006,24.96244,121.2006
果菜市場,24.99153+121.26836,24.99153,121.26836
波特曼花園廣場,24.99317+121.27507,24.99317,121.27507
苗圃,25.09878+121.21456,25.09878,121.21456
富文宮,25.07676+121.16951,25.07676,121.16951
陸光國宅,24.96672+121.25729,24.96672,121.25729
龍安街口,24.99145+121.28056,24.99145,121.28056
環訓所,24.95856+121.19266,24.95856,121.19266
雙連坡,24.96039+121.19057,24.96039,121.19057
中平國小,24.95906+121.17796,24.95906,121.17796
過嶺,24.95922+121.17649,24.95922,121.17649
龍太社區,24.95891+121.17419,24.95891,121.17419
嘉裕紡織廠,24.95809+121.16807,24.95809,121.16807
高榮,24.95822+121.16553,24.95822,121.16553
中壢地政事務所,24.96009+121.16359,24.96009,121.16359
覺海院,24.99329+121.34177,24.99329,121.34177
黃昏市場,25.04694+121.29974,25.04694,121.29974
下埔,25.03452+121.23064,25.03452,121.23064
中壢好市多,24.963+121.15574,24.963,121.15574
北坡,24.96757+121.14777,24.96757,121.14777
平坡,24.96991+121.14497,24.96991,121.14497
大圳,24.97319+121.13953,24.97319,121.13953
泉洲碑,24.98526+121.13476,24.98526,121.13476
三民五興路口,24.95994+121.19674,24.95994,121.19674
懷德,24.98847+121.13377,24.98847,121.13377
富煉橋,24.99057+121.13256,24.99057,121.13256
大園高中,25.02134+121.21992,25.02134,121.21992
拉拉山口,24.70374+121.42108,24.70374,121.42108
上巴陵,24.68615+121.39912,24.68615,121.39912
中巴陵,24.6799+121.39746,24.6799,121.39746
中巴陵站,24.67824+121.39694,24.67824,121.39694
謙德新村,24.93498+121.24665,24.93498,121.24665
伍祥社區,24.93683+121.24641,24.93683,121.24641
水利會,24.94975+121.21243,24.94975,121.21243
高雙里,24.95705+121.19607,24.95705,121.19607
太子鎮,24.94113+121.24535,24.94113,121.24535
翰林華城,24.94391+121.2441,24.94391,121.2441
龍興路口,24.9454+121.24554,24.9454,121.24554
大安國小,24.95665+121.31496,24.95665,121.31496
大成國中,24.95746+121.3055,24.95746,121.3055
大草厝,24.95856+121.31883,24.95856,121.31883
介新街,24.97614+121.30865,24.97614,121.30865
白蘭社區,24.96515+121.30832,24.96515,121.30832
米祺爾,24.97028+121.30893,24.97028,121.30893
祐民醫院,24.95712+121.20375,24.95712,121.20375
上大里,24.99207+121.13458,24.99207,121.13458
西坡路口,24.95779+121.30995,24.95779,121.30995
香榭儷舍,24.95762+121.30247,24.95762,121.30247
湖仔坡,24.96124+121.32049,24.96124,121.32049
華映公司,24.96358+121.32201,24.96358,121.32201
松濤園,24.92595+121.20613,24.92595,121.20613
新光路二段二,24.93007+121.20538,24.93007,121.20538
新光路二段一,24.93236+121.20512,24.93236,121.20512
新加坡社區,24.96767+121.30894,24.96767,121.30894
青果市場,24.95739+121.20758,24.95739,121.20758
下草湖,24.99521+121.13572,24.99521,121.13572
桃花園飯店,24.98994+121.31143,24.98994,121.31143
八角店,25.01208+121.27519,25.01208,121.27519
草湖,24.99683+121.13615,24.99683,121.13615
溫厝,25.00069+121.13716,25.00069,121.13716
後庄,25.00464+121.13937,25.00464,121.13937
八股坡,25.01842+121.26724,25.01842,121.26724
宏邦大鎮,25.01985+121.26558,25.01985,121.26558
洪厝,25.03427+121.23837,25.03427,121.23837
新天地社區,24.8856+121.22568,24.8856,121.22568
燈潭,24.88525+121.21942,24.88525,121.21942
潛龍堡社區,24.8856+121.21423,24.8856,121.21423
工五路,24.88847+121.21168,24.88847,121.21168
工業五路,24.90244+121.19772,24.90244,121.19772
湧光路623巷口,24.88886+121.19972,24.88886,121.19972
湧光路577巷口,24.88904+121.20091,24.88904,121.20091
優聖美地社區,24.88574+121.20435,24.88574,121.20435
仁愛新村,24.9566+121.2094,24.9566,121.2094
中央,24.88337+121.20489,24.88337,121.20489
中央土地廟,24.88276+121.20654,24.88276,121.20654
大漢社區,24.88416+121.21071,24.88416,121.21071
湖口火車站,24.90307+121.04433,24.90307,121.04433
楊梅火車站(楊新路),24.91324+121.14519,24.91324,121.14519
山子頂,24.90019+121.21051,24.90019,121.21051
南豐路,24.9001+121.20722,24.9001,121.20722
工業一路口,24.89963+121.20508,24.89963,121.20508
工業二路口,24.90003+121.20284,24.90003,121.20284
廣興,24.95606+121.21106,24.95606,121.21106
工業三路口,24.90001+121.20062,24.90001,121.20062
工業三路,24.90389+121.19986,24.90389,121.19986
污水處理廠,24.9054+121.1991,24.9054,121.1991
工業六路口,24.89948+121.19901,24.89948,121.19901
宏嘉公司,24.89748+121.20236,24.89748,121.20236
富吉,25.01376+121.27235,25.01376,121.27235
平安新村,24.94741+121.21049,24.94741,121.21049
內壢,24.97376+121.26125,24.97376,121.26125
愛國一路,25.02534+121.26243,25.02534,121.26243
新明國中,24.95603+121.21336,24.95603,121.21336
新莊國小,25.02717+121.24561,25.02717,121.24561
普義溪洲三街口,24.96085+121.23157,24.96085,121.23157
廟前,25.02424+121.24847,25.02424,121.24847
廟後,25.02564+121.24719,25.02564,121.24719
技隆科技,24.93682+121.11846,24.93682,121.11846
員豐橋,24.93749+121.09906,24.93749,121.09906
福慧寺,25.01396+121.39208,25.01396,121.39208
悅灣一期,25.04593+121.17162,25.04593,121.17162
自立社區,25.06431+121.18109,25.06431,121.18109
舊社,24.95541+121.21631,24.95541,121.21631
宏昌十二街,24.98482+121.29164,24.98482,121.29164
國聖一街,24.98523+121.28866,24.98523,121.28866
平鎮區公所(中豐路),24.94283+121.21658,24.94283,121.21658
富豐里3鄰,24.9261+121.09273,24.9261,121.09273
護理之家,24.98551+121.29353,24.98551,121.29353
莊厝,24.91252+121.08884,24.91252,121.08884
承恩路口,24.83157+121.30415,24.83157,121.30415
建龍新村,24.88983+121.21269,24.88983,121.21269
敏盛醫院,24.87531+121.21346,24.87531,121.21346
大漢新村,24.88341+121.21209,24.88341,121.21209
大榮,24.87655+121.21145,24.87655,121.21145
富樂新村,24.87354+121.21001,24.87354,121.21001
中正新境界,24.87162+121.20842,24.87162,121.20842
八德區公所(三元宮),24.92972+121.2846,24.92972,121.2846
三塊厝,25.03902+121.22888,25.03902,121.22888
建國仁德一路口,24.93699+121.28838,24.93699,121.28838
亞洲電台,24.98787+121.29281,24.98787,121.29281
建國大勤街口,24.94707+121.28918,24.94707,121.28918
打鐵店,24.95269+121.29112,24.95269,121.29112
至尊社區,25.09009+121.21703,25.09009,121.21703
大明街口,24.96897+121.29686,24.96897,121.29686
桃德路,24.96763+121.29456,24.96763,121.29456
中德里,24.9822+121.28983,24.9822,121.28983
永福西街,24.96384+121.29503,24.96384,121.29503
福國北街,24.96027+121.29456,24.96027,121.29456
台電大樓,24.98958+121.30485,24.98958,121.30485
南崁國小,25.04997+121.30188,25.04997,121.30188
中山長春路口,25.05274+121.30031,25.05274,121.30031
國泰駕訓班,24.99253+121.28826,24.99253,121.28826
國際路二段,24.99463+121.28793,24.99463,121.28793
國際路,24.99988+121.28762,24.99988,121.28762
中山正光路口,24.99099+121.29439,24.99099,121.29439
中山中平路口,24.99086+121.29142,24.99086,121.29142
華勛福德宮,24.95187+121.26374,24.95187,121.26374
中央東路,24.9565+121.22551,24.9565,121.22551
廣福路口,24.95953+121.29205,24.95953,121.29205
中央大學警衛室,24.96832+121.19559,24.96832,121.19559
海巡大隊路口,25.11187+121.23996,25.11187,121.23996
國寶新村,24.90264+121.143,24.90264,121.143
環南路1,24.90274+121.14439,24.90274,121.14439
環南路2,24.90175+121.1475,24.90175,121.1475
思夢樂,24.91055+121.15663,24.91055,121.15663
中央大學後門,24.96677+121.19142,24.96677,121.19142
大同國小,24.90977+121.14857,24.90977,121.14857
月眉橋,24.91844+121.14592,24.91844,121.14592
梅高幼獅路,24.92856+121.146,24.92856,121.146
老莊路1,24.89123+121.15874,24.89123,121.15874
老莊路2,24.8948+121.15556,24.8948,121.15556
老莊路3,24.89625+121.15409,24.89625,121.15409
楊梅國小,24.90439+121.14663,24.90439,121.14663
楊梅國中,24.90271+121.14922,24.90271,121.14922
美麗新城社區,24.94992+121.14033,24.94992,121.14033
中央大學觀景台,24.96794+121.19548,24.96794,121.19548
邱家,24.94929+121.13757,24.94929,121.13757
金龍活動中心,24.91466+121.18566,24.91466,121.18566
邱厝(二),24.983+121.05899,24.983,121.05899
華豐農場,25.08659+121.21052,25.08659,121.21052
七號坡,25.01947+121.20247,25.01947,121.20247
南上路口,25.04739+121.29938,25.04739,121.29938
中大湖,24.96988+121.19151,24.96988,121.19151
佳安市場,24.83582+121.23929,24.83582,121.23929
介壽建國路口,24.98463+121.31024,24.98463,121.31024
北區老人文康活動中心,25.00264+121.32758,25.00264,121.32758
聚寶莊社區,24.90271+121.12503,24.90271,121.12503
東流里,24.89158+121.12088,24.89158,121.12088
崩坡下,24.89732+121.11409,24.89732,121.11409
鍾屋,24.90124+121.10365,24.90124,121.10365
張屋,24.90541+121.11176,24.90541,121.11176
潤泰公司,24.97113+121.20129,24.97113,121.20129
老飯店橋,24.93496+121.12237,24.93496,121.12237
瑞原國中,24.9338+121.12202,24.9338,121.12202
瑞原活動中心,24.92909+121.11172,24.92909,121.11172
瑞原國小,24.92753+121.10416,24.92753,121.10416
廣福里16鄰,25.00811+121.14704,25.00811,121.14704
廣福里15鄰,25.01175+121.15057,25.01175,121.15057
廣福里12鄰,25.01633+121.15562,25.01633,121.15562
廣福里7鄰,25.0275+121.15178,25.0275,121.15178
塔腳,25.02995+121.14992,25.02995,121.14992
觀音高中(側門),25.01591+121.1348,25.01591,121.1348
新潮社區,25.08537+121.20903,25.08537,121.20903
內海,25.08442+121.18884,25.08442,121.18884
三民里,24.9764+121.19601,24.9764,121.19601
龍興駕訓班,24.87234+121.2282,24.87234,121.2282
文智文德路口,25.00196+121.20731,25.00196,121.20731
濱海智海街口,25.11551+121.26071,25.11551,121.26071
南平國民運動中心,25.02088+121.3051,25.02088,121.3051
茶工廠,24.87563+121.22793,24.87563,121.22793
陸光六村,24.95268+121.21518,24.95268,121.21518
關爺南路241巷,24.92158+121.22041,24.92158,121.22041
大清一品社區,24.91813+121.22118,24.91813,121.22118
崎頂,24.9797+121.19341,24.9797,121.19341
平東路二段,24.91206+121.23057,24.91206,121.23057
三興路口,24.9104+121.23119,24.9104,121.23119
台北商業大學,24.90275+121.23064,24.90275,121.23064
金龍路433巷,24.8917+121.23166,24.8917,121.23166
金台橋,24.88944+121.23227,24.88944,121.23227
金雞湖,24.89144+121.23743,24.89144,121.23743
洪圳路1125巷,24.89113+121.24396,24.89113,121.24396
東勢里12鄰,24.89666+121.24701,24.89666,121.24701
桃花莊,24.90458+121.24808,24.90458,121.24808
富貴集祥,24.90594+121.24436,24.90594,121.24436
平東路679巷,24.90836+121.2417,24.90836,121.2417
華隆街旁,24.91244+121.23949,24.91244,121.23949
森林之家,24.9128+121.24342,24.9128,121.24342
社子,24.91521+121.24803,24.91521,121.24803
東安國中,24.91632+121.24966,24.91632,121.24966
平東路口,24.91764+121.25204,24.91764,121.25204
平等路,24.91912+121.25305,24.91912,121.25305
龍南路,24.92326+121.24838,24.92326,121.24838
貿七公園,24.92456+121.25179,24.92456,121.25179
下富源,24.96444+121.1506,24.96444,121.1506
志欣,24.96329+121.14668,24.96329,121.14668
黎頭洲,24.96262+121.1448,24.96262,121.1448
頭州新城,24.96354+121.14329,24.96354,121.14329
和泰,24.96803+121.13925,24.96803,121.13925
富九,24.96926+121.13762,24.96926,121.13762
豪軒,24.97004+121.13571,24.97004,121.13571
北勢,24.97171+121.13136,24.97171,121.13136
三宏,24.98304+121.18953,24.98304,121.18953
元華公司,24.97265+121.12831,24.97265,121.12831
頂紅泥坡,24.97291+121.12587,24.97291,121.12587
鄧厝,24.97212+121.12376,24.97212,121.12376
清華里,24.97121+121.11996,24.97121,121.11996
紅泥坡,24.97034+121.11711,24.97034,121.11711
台一,24.97032+121.11496,24.97032,121.11496
加油站,24.97107+121.11083,24.97107,121.11083
桃園機場加油站,25.08947+121.24857,25.08947,121.24857
電信局,24.97167+121.10952,24.97167,121.10952
雙路口,24.97347+121.09977,24.97347,121.09977
新明公司,24.97393+121.09689,24.97393,121.09689
全美公司,24.97508+121.0907,24.97508,121.0907
新光,24.97581+121.08677,24.97581,121.08677
東明,24.97647+121.08331,24.97647,121.08331
巴陵,24.67828+121.38495,24.67828,121.38495
巴陵橋,24.68864+121.37847,24.68864,121.37847
蘇樂,24.69334+121.37415,24.69334,121.37415
下蘇樂,24.69896+121.37363,24.69896,121.37363
高義,24.71022+121.36079,24.71022,121.36079
里安,24.72549+121.35622,24.72549,121.35622
榮華,24.7404+121.34743,24.7404,121.34743
內奎輝,24.74179+121.34239,24.74179,121.34239
榮華分班,24.74983+121.35584,24.74983,121.35584
大灣,24.76065+121.34441,24.76065,121.34441
大彎,24.76052+121.34438,24.76052,121.34438
高坡,24.76763+121.35147,24.76763,121.35147
斷匯,24.78065+121.36045,24.78065,121.36045
羅浮口,24.79132+121.36592,24.79132,121.36592
龍岡國小,24.94232+121.23006,24.94232,121.23006
羅浮,24.79393+121.36446,24.79393,121.36446
羅浮國小,24.79799+121.36344,24.79799,121.36344
介壽保羅街口,24.98274+121.30863,24.98274,121.30863
羅浮派出所,24.79913+121.36515,24.79913,121.36515
復興橋,24.80303+121.36776,24.80303,121.36776
合流,24.80595+121.36839,24.80595,121.36839
霞雲坪,24.80509+121.36538,24.80509,121.36538
托兒所,24.80774+121.3562,24.80774,121.3562
下霞雲坪,24.80827+121.35355,24.80827,121.35355
復興站,24.81487+121.35114,24.81487,121.35114
介壽國中,24.82142+121.35259,24.82142,121.35259
青埔國中,25.01063+121.20528,25.01063,121.20528
新村,24.82408+121.35165,24.82408,121.35165
三民橋,24.82308+121.34835,24.82308,121.34835
檀林寺,24.82183+121.34467,24.82183,121.34467
枕頭山,24.82324+121.34332,24.82324,121.34332
圓山橋,24.82693+121.34053,24.82693,121.34053
圓山腳,24.8294+121.3363,24.8294,121.3363
枕頭山口,24.82937+121.33206,24.82937,121.33206
水流東,24.83207+121.3293,24.83207,121.3293
新峰,24.83261+121.32393,24.83261,121.32393
四號橋,24.83044+121.31879,24.83044,121.31879
保安,24.82847+121.31297,24.82847,121.31297
岡崎,25.01107+121.2276,25.01107,121.2276
百吉,24.82539+121.31071,24.82539,121.31071
溪坪,24.82511+121.30794,24.82511,121.30794
曾厝,24.82843+121.30519,24.82843,121.30519
湳溝,24.83185+121.30562,24.83185,121.30562
洞口,24.83604+121.30239,24.83604,121.30239
上岡崎,25.00908+121.22765,25.00908,121.22765
台熱公司,24.97924+121.24349,24.97924,121.24349
文化派出所,24.9792+121.24598,24.9792,121.24598
南園路口,24.96631+121.24183,24.96631,121.24183
草嶺,24.84135+121.28915,24.84135,121.28915
南京路口,24.91639+121.20965,24.91639,121.20965
中庸路口,24.91325+121.20385,24.91325,121.20385
龍岡橋,24.94769+121.22585,24.94769,121.22585
寶城,25.00654+121.22835,25.00654,121.22835
頂石頭,24.93787+121.23193,24.93787,121.23193
愛家發展中心,24.92664+121.25278,24.92664,121.25278
忠貞中正社區,24.92633+121.25427,24.92633,121.25427
忠貞市場,24.92857+121.25576,24.92857,121.25576
龍福路口,24.92519+121.24962,24.92519,121.24962
育達高中,24.95171+121.20932,24.95171,121.20932
育英路口,24.95068+121.21248,24.95068,121.21248
新勢國小(新勢公園),24.95058+121.21693,24.95058,121.21693
勞保局(國民運動中心),24.96421+121.21459,24.96421,121.21459
大伯公,24.95074+121.2057,24.95074,121.2057
復旦中學,24.94848+121.20341,24.94848,121.20341
黃厝,25.04104+121.22613,25.04104,121.22613
羅曼蒂社區,24.94633+121.20189,24.94633,121.20189
紫雲宮,24.94557+121.22185,24.94557,121.22185
平鎮區公所(和平路),24.94608+121.2196,24.94608,121.2196
金山街口,24.94353+121.22256,24.94353,121.22256
北勢新村,24.94163+121.22292,24.94163,121.22292
北興加油站,24.93914+121.22349,24.93914,121.22349
鄉界,25.00389+121.22905,25.00389,121.22905
北勢國小,24.93599+121.22488,24.93599,121.22488
正義街口,24.93103+121.22637,24.93103,121.22637
獅子林,24.92917+121.22713,24.92917,121.22713
建安宮,24.91128+121.23455,24.91128,121.23455
下東社,24.9122+121.23844,24.9122,121.23844
大江購物中心,25.00082+121.22955,25.00082,121.22955
平東加油站,24.91245+121.24059,24.91245,121.24059
冠興新村,24.91282+121.24326,24.91282,121.24326
龍岡醫院,24.91348+121.24546,24.91348,121.24546
東安國小,24.91705+121.25095,24.91705,121.25095
玉皇宮,24.979+121.07339,24.979,121.07339
頂田心,24.97969+121.07117,24.97969,121.07117
永昌,24.98081+121.06851,24.98081,121.06851
下田心,24.98185+121.06464,24.98185,121.06464
謝厝,24.99564+121.23244,24.99564,121.23244
田中,24.98277+121.0607,24.98277,121.0607
平東路,24.91756+121.25201,24.91756,121.25201
上庄,24.98387+121.0567,24.98387,121.0567
谷瑞公司,24.98541+121.05202,24.98541,121.05202
農會,24.9862+121.04968,24.9862,121.04968
下庄子,24.98725+121.04582,24.98725,121.04582
平等路口,24.91916+121.25299,24.91916,121.25299
永安國中,24.98758+121.04373,24.98758,121.04373
中庄,24.98788+121.04104,24.98788,121.04104
中興,24.9884+121.0362,24.9884,121.0362
永新,24.98882+121.03233,24.98882,121.03233
西濱路口,24.98905+121.03023,24.98905,121.03023
永安,24.98918+121.02882,24.98918,121.02882
賴厝,24.99287+121.2338,24.99287,121.2338
永安橋,24.98571+121.02731,24.98571,121.02731
笨仔港,24.97737+121.0268,24.97737,121.0268
糠榔,24.97545+121.02695,24.97545,121.02695
埔子頂,24.96991+121.02187,24.96991,121.02187
榕樹下,24.96753+121.01779,24.96753,121.01779
深圳頭,24.96436+121.01501,24.96436,121.01501
李厝2,24.9626+121.01438,24.9626,121.01438
王厝店,24.95901+121.0135,24.95901,121.0135
萬能科技大學,24.99137+121.23435,24.99137,121.23435
興豐友聯街口,24.92992+121.29057,24.92992,121.29057
佳佳商場,24.86156+121.21777,24.86156,121.21777
龍潭高中,24.86078+121.21306,24.86078,121.21306
東龍中豐路口,24.86872+121.21384,24.86872,121.21384
深圳,24.9563+121.01225,24.9563,121.01225
百年大鎮,24.87798+121.21189,24.87798,121.21189
烏樹林,24.88533+121.2123,24.88533,121.2123
虎嶺,24.8938+121.21178,24.8938,121.21178
富華民生路口,24.84649+121.22456,24.84649,121.22456
石園二村,24.83129+121.23795,24.83129,121.23795
瑞員便利商店,24.94127+121.11207,24.94127,121.11207
大圳橋,24.98618+121.2384,24.98618,121.2384
桃客龍潭站,24.86766+121.21568,24.86766,121.21568
竹客龍潭站,24.86537+121.21158,24.86537,121.21158
十二號坡,24.95265+121.01113,24.95265,121.01113
長庚醫院,25.05965+121.36798,25.05965,121.36798
林口長庚醫院,25.05941+121.3681,25.05941,121.3681
蚵間,24.94917+121.00887,24.94917,121.00887
吳厝,24.94395+121.00392,24.94395,121.00392
皇天宮,24.97756+121.23618,24.97756,121.23618
大深坑,24.94182+121.00246,24.94182,121.00246
深坑橋,24.93937+121.00242,24.93937,121.00242
後湖,24.93336+120.99825,24.93336,120.99825
草嶺腳,24.84273+121.28727,24.84273,121.28727
頭寮,24.84713+121.2851,24.84713,121.2851
大溪陵寢,24.8488+121.28661,24.8488,121.28661
福安國小,24.85014+121.28813,24.85014,121.28813
啟英高中,24.97582+121.23609,24.97582,121.23609
龍溪花園,24.85371+121.29057,24.85371,121.29057
三層,24.85878+121.2951,24.85878,121.2951
埔心仔,24.86324+121.29457,24.86324,121.29457
三層崎頂,24.86641+121.29394,24.86641,121.29394
三層崎腳,24.87805+121.29314,24.87805,121.29314
桃客大溪站,24.88118+121.2879,24.88118,121.2879
興埔路口,24.9344+121.22526,24.9344,121.22526
正義路口,24.93069+121.22652,24.93069,121.22652
莊屋,24.92707+121.22757,24.92707,121.22757
橋頭埔,24.92344+121.22803,24.92344,121.22803
慈惠堂,24.9207+121.22894,24.9207,121.22894
柑仔園,24.9184+121.23036,24.9184,121.23036
曾家莊,24.9166+121.23116,24.9166,121.23116
桃園纖維,24.91256+121.23109,24.91256,121.23109
東勢,24.91039+121.23112,24.91039,121.23112
平東橋,24.90431+121.23096,24.90431,121.23096
馮屋,24.90247+121.23329,24.90247,121.23329
中園福州二街口,24.96947+121.23598,24.96947,121.23598
伯公崙,24.90001+121.23492,24.90001,121.23492
金東湖,24.89494+121.23709,24.89494,121.23709
伯公下,24.88433+121.22979,24.88433,121.22979
仁和國中,24.8938+121.27548,24.8938,121.27548
竹圍總站,25.10604+121.24019,25.10604,121.24019
叉路口,24.87934+121.22885,24.87934,121.22885
長榮花園,25.05672+121.29774,25.05672,121.29774
中壢後站,24.95271+121.2251,24.95271,121.2251
三光,24.67352+121.36775,24.67352,121.36775
中山育樂街口,24.99211+121.30397,24.99211,121.30397
沙崙子,24.67095+121.35531,24.67095,121.35531
尾寮,24.88313+121.30029,24.88313,121.30029
美華國小,24.88203+121.30361,24.88203,121.30361
十全,24.87909+121.30301,24.87909,121.30301
台廣電台,24.87779+121.30235,24.87779,121.30235
永和,24.98781+121.0238,24.98781,121.0238
永安漁港,24.98824+121.01846,24.98824,121.01846
天水堂,24.97865+121.08109,24.97865,121.08109
上赤欄,24.98249+121.07917,24.98249,121.07917
安養中心,24.98455+121.07802,24.98455,121.07802
洽溪,25.01642+121.20331,25.01642,121.20331
赤欄,24.98601+121.0768,24.98601,121.0768
中赤欄,24.98833+121.07504,24.98833,121.07504
下赤欄,24.99031+121.07288,24.99031,121.07288
偉儷公司,24.99094+121.07095,24.99094,121.07095
豐田,24.99294+121.06866,24.99294,121.06866
上員笨,24.99445+121.06613,24.99445,121.06613
員笨,24.99597+121.06355,24.99597,121.06355
石牌嶺,24.99802+121.06002,24.99802,121.06002
中石牌,24.99987+121.057,24.99987,121.057
羅厝,25.01458+121.20367,25.01458,121.20367
下石牌嶺,25.00277+121.05233,25.00277,121.05233
北湖國小,25.00447+121.04954,25.00447,121.04954
北湖,25.00743+121.04476,25.00743,121.04476
北湖一,25.01005+121.04053,25.01005,121.04053
中北湖,25.01166+121.03791,25.01166,121.03791
姜厝,25.01266+121.03647,25.01266,121.03647
下北湖,25.01469+121.03437,25.01469,121.03437
小角廟,24.87383+121.30043,24.87383,121.30043
小角仔,24.87173+121.30112,24.87173,121.30112
紅瓦厝,24.86921+121.29971,24.86921,121.29971
莉仔寮,24.86563+121.29677,24.86563,121.29677
下莉仔寮,24.86673+121.29758,24.86673,121.29758
上莉仔寮,24.86312+121.29575,24.86312,121.29575
琪富,24.84385+121.28326,24.84385,121.28326
頭寮城,24.83953+121.28127,24.83953,121.28127
竹篙厝,24.83752+121.27964,24.83752,121.27964
內湳溝,24.82929+121.30212,24.82929,121.30212
承恩,24.82733+121.29871,24.82733,121.29871
承恩橋,24.82585+121.29745,24.82585,121.29745
溝尾,24.82471+121.29433,24.82471,121.29433
懷德橋,24.82342+121.28694,24.82342,121.28694
龍珠灣樂園,24.82026+121.28737,24.82026,121.28737
二層坪,24.81653+121.2909,24.81653,121.2909
溪尾坪,24.81678+121.29913,24.81678,121.29913
阿姆坪樂園,24.81568+121.30424,24.81568,121.30424
阿姆坪,24.81798+121.31107,24.81798,121.31107
舊路口,24.82077+121.3121,24.82077,121.3121
百吉國小,24.82396+121.31187,24.82396,121.31187
東陽宮,24.94958+121.3495,24.94958,121.3495
一二三幼稚園,24.9482+121.34586,24.9482,121.34586
楊梅後火車站,24.91524+121.14585,24.91524,121.14585
龍安街,24.87761+121.22873,24.87761,121.22873
成功新村,24.87299+121.22567,24.87299,121.22567
黃泥塘(成功路),24.87161+121.22511,24.87161,121.22511
八大坵,25.01096+121.20274,25.01096,121.20274
北富里,24.92507+121.2279,24.92507,121.2279
平鎮區公所(振興路),24.94538+121.2198,24.94538,121.2198
陳屋,24.89889+121.22901,24.89889,121.22901
山峰,24.89622+121.22639,24.89622,121.22639
上隘寮,24.89421+121.22404,24.89421,121.22404
隘寮頂,24.89252+121.22369,24.89252,121.22369
福德祠,24.91619+121.20686,24.91619,121.20686
活動中心,25.00867+121.20186,25.00867,121.20186
力捷公司,25.03656+121.3017,25.03656,121.3017
中正路420巷口,24.94196+121.07581,24.94196,121.07581
羊稠活動中心,25.05282+121.29924,25.05282,121.29924
環北新生路口,24.96591+121.22427,24.96591,121.22427
環北路,24.96614+121.21854,24.96614,121.21854
新光大樓,24.98915+121.30862,24.98915,121.30862
大園舊站,25.064+121.19676,25.064,121.19676
桃園火車站,24.98985+121.31541,24.98985,121.31541
圳頭國小,25.07299+121.20566,25.07299,121.20566
大園國中,25.05509+121.17175,25.05509,121.17175
明碁電腦,24.98844+121.325,24.98844,121.325
頂南崁,25.0435+121.29803,25.0435,121.29803
甘蔗園,25.04006+121.30019,25.04006,121.30019
南上里,25.03799+121.30105,25.03799,121.30105
童話森林社區,24.93447+121.13702,24.93447,121.13702
介壽保羅路口,24.98283+121.30867,24.98283,121.30867
湖山街305號,24.98258+121.34833,24.98258,121.34833
森林公園,24.93336+121.23678,24.93336,121.23678
龍恩里公園,24.93098+121.23078,24.93098,121.23078
城市CRV,24.9404+121.22199,24.9404,121.22199
平鎮圖書分館,24.94035+121.21717,24.94035,121.21717
平鎮地政所,24.94039+121.21489,24.94039,121.21489
環南路二段,24.94275+121.2111,24.94275,121.2111
帝國大廈,24.94437+121.20916,24.94437,121.20916
平興國小,24.94392+121.20376,24.94392,121.20376
復興親子公園,24.94992+121.20481,24.94992,121.20481
陽明醫院,24.95106+121.21182,24.95106,121.21182
中壢後火車站,24.95225+121.22551,24.95225,121.22551
金陵路口,24.94931+121.22243,24.94931,121.22243
新光路口,24.93979+121.20584,24.93979,121.20584
宏太社區,24.98755+121.28349,24.98755,121.28349
永裕路口,25.00594+121.20133,25.00594,121.20133
頭洲新城,24.96335+121.1433,24.96335,121.1433
中正一路口,24.92988+121.28303,24.92988,121.28303
郵局(范姜古厝),24.97289+121.10429,24.97289,121.10429
桃客新屋站,24.97291+121.1025,24.97291,121.1025
尖山國中,24.94516+121.34144,24.94516,121.34144
白沙岬燈塔,25.04219+121.07745,25.04219,121.07745
福人步道,24.8976+121.1506,24.8976,121.1506
東坡,24.97332+121.07569,24.97332,121.07569
葉厝,24.96875+121.07045,24.96875,121.07045
上糠榔,24.96642+121.05959,24.96642,121.05959
大庄埔,24.96534+121.05463,24.96534,121.05463
警訓中心,24.96357+121.04979,24.96357,121.04979
學堂坡,24.96204+121.04522,24.96204,121.04522
大坡國中,24.96005+121.04083,24.96005,121.04083
大坡派出所,24.95902+121.03845,24.95902,121.03845
洽溪口,24.95563+121.0289,24.95563,121.0289
桃園區農業改良場,24.95369+121.02452,24.95369,121.02452
後庄社區活動中心,24.95146+121.0194,24.95146,121.0194
埔頂社區,24.94793+121.00446,24.94793,121.00446
蚵間國小,24.94908+121.00949,24.94908,121.00949
蚵間活動中心,24.94571+120.99971,24.94571,120.99971
蚵間里,24.94067+120.99382,24.94067,120.99382
蚵間里福興宮,24.93988+120.98961,24.93988,120.98961
北勢派出所,24.94209+121.22076,24.94209,121.22076
振平街口,24.94184+121.22283,24.94184,121.22283
南東路,24.91906+121.22015,24.91906,121.22015
麗新社區,24.94302+121.33929,24.94302,121.33929
二橋,24.94167+121.33879,24.94167,121.33879
芭里國小,24.9969+121.20762,24.9969,121.20762
二橋國小,24.94081+121.33784,24.94081,121.33784
鶯歌高職,24.93938+121.33531,24.93938,121.33531
三口坡,24.93785+121.33207,24.93785,121.33207
頂橋頭,24.93664+121.3299,24.93664,121.3299
橋仔頭,24.93537+121.32806,24.93537,121.32806
福德橋,24.93453+121.32328,24.93453,121.32328
咸豐,24.93284+121.32011,24.93284,121.32011
中新派出所,24.93012+121.3183,24.93012,121.3183
中新,24.92811+121.31475,24.92811,121.31475
中興國小,24.92505+121.31094,24.92505,121.31094
芝芭里,24.9941+121.2089,24.9941,121.2089
埔尾,24.92339+121.3079,24.92339,121.3079
公館,24.91892+121.30158,24.91892,121.30158
五甲,24.91069+121.29649,24.91069,121.29649
下崁,24.90645+121.2949,24.90645,121.2949
瑞興,24.89915+121.29062,24.89915,121.29062
缺子,24.89705+121.28866,24.89705,121.28866
長崎腳,24.89501+121.2851,24.89501,121.2851
栗子園,24.89267+121.27949,24.89267,121.27949
排水橋,24.92193+121.30584,24.92193,121.30584
農場,24.99179+121.20918,24.99179,121.20918
第二市場,24.86489+121.2171,24.86489,121.2171
大潤發,24.9204+121.2134,24.9204,121.2134
忠貞,24.93029+121.25383,24.93029,121.25383
龍聖,24.87005+121.20464,24.87005,121.20464
凌雲岡,24.87148+121.2037,24.87148,121.2037
慈惠宮,24.87405+121.202,24.87405,121.202
德龍國小,24.87982+121.19935,24.87982,121.19935
八張犁,24.88271+121.19875,24.88271,121.19875
金車公司,24.89272+121.19508,24.89272,121.19508
倚翠園,24.8992+121.19336,24.8992,121.19336
鎮興里,24.90161+121.19199,24.90161,121.19199
試驗廠,24.907+121.18896,24.907,121.18896
三龍新村,24.915+121.18633,24.915,121.18633
瑞埔國小,24.91623+121.18557,24.91623,121.18557
中興路,24.91796+121.18455,24.91796,121.18455
春源,24.87686+121.19993,24.87686,121.19993
大丘田,24.9875+121.2086,24.9875,121.2086
大興春日路口,25.01547+121.30988,25.01547,121.30988
台北檳城,25.01616+121.31435,25.01616,121.31435
味全牧場,24.92571+121.17579,24.92571,121.17579
壽山,24.99622+121.34065,24.99622,121.34065
上石橋,24.98868+121.10324,24.98868,121.10324
王一公司,24.99354+121.10093,24.99354,121.10093
工作站,24.99685+121.10011,24.99685,121.10011
榮興,24.99985+121.09949,24.99985,121.09949
忠興,25.00323+121.09816,25.00323,121.09816
石橋,25.00673+121.09653,25.00673,121.09653
和興,25.01608+121.09305,25.01608,121.09305
坑尾,25.01799+121.09352,25.01799,121.09352
六號坡,24.97921+121.20976,24.97921,121.20976
美夢成真社區,25.02012+121.09236,25.02012,121.09236
三和,25.02167+121.09068,25.02167,121.09068
橫圳頭,25.02461+121.08759,25.02461,121.08759
橫圳頂,25.02657+121.08589,25.02657,121.08589
水利站,25.03295+121.0829,25.03295,121.0829
觀音分駐所,25.03647+121.08257,25.03647,121.08257
觀音站,25.03778+121.08096,25.03778,121.08096
湧興路,24.89714+121.20799,24.89714,121.20799
湧光福德祠,24.89317+121.2068,24.89317,121.2068
湧光路,24.88974+121.20343,24.88974,121.20343
湧光路577巷,24.88912+121.20068,24.88912,121.20068
皇家大庭院,24.90166+121.19199,24.90166,121.19199
埔心火車站,24.91966+121.18445,24.91966,121.18445
千頃堂,24.92304+121.18907,24.92304,121.18907
八角塘,24.92127+121.19509,24.92127,121.19509
鎮安宮,24.9212+121.20376,24.9212,121.20376
平德路二,24.92847+121.199,24.92847,121.199
平德路一,24.92684+121.19269,24.92684,121.19269
三座厝,24.97335+121.19875,24.97335,121.19875
掬水軒,24.93347+121.19951,24.93347,121.19951
文化國小,24.95336+121.20322,24.95336,121.20322
頂後湖,24.97703+121.09628,24.97703,121.09628
後湖塘橋,24.97981+121.09133,24.97981,121.09133
下後湖,24.98347+121.08866,24.98347,121.08866
尾湖,24.98866+121.08364,24.98866,121.08364
上羅厝,24.99163+121.08297,24.99163,121.08297
復旦集會所,24.95451+121.20557,24.95451,121.20557
復旦國小,24.95456+121.20757,24.95456,121.20757
下舊社,24.97033+121.21531,24.97033,121.21531
合作街口,24.95455+121.20931,24.95455,121.20931
廣東路口,24.95438+121.21135,24.95438,121.21135
廣平街口,24.95426+121.21289,24.95426,121.21289
元氣東京,24.95294+121.21427,24.95294,121.21427
振興西路,24.94647+121.21272,24.94647,121.21272
新榮路,24.94703+121.21509,24.94703,121.21509
仁仁幼兒園,24.93397+121.19475,24.93397,121.19475
宋屋里,24.9393+121.19876,24.9393,121.19876
莒光街口,24.99538+121.30311,24.99538,121.30311
中福街口,24.9977+121.30333,24.9977,121.30333
家興新村,24.96731+121.21618,24.96731,121.21618
永安路,24.99783+121.30486,24.99783,121.30486
中正三民路口,24.9996+121.30801,24.9996,121.30801
中正三街口,25.00073+121.30021,25.00073,121.30021
長榮富豪,25.02541+121.30035,25.02541,121.30035
向善街口,25.01801+121.31095,25.01801,121.31095
建國路,24.98532+121.31099,24.98532,121.31099
建國路口,24.98528+121.31112,24.98528,121.31112
民有十一街口,25.0108+121.31201,25.0108,121.31201
寶山街口(慈濟靜思堂),25.01039+121.31348,25.01039,121.31348
柑園,24.96419+121.21709,24.96419,121.21709
大業國小,25.00694+121.31616,25.00694,121.31616
青溪國小,24.99928+121.31758,24.99928,121.31758
青溪國中,24.99749+121.31832,24.99749,121.31832
中央街口,24.99449+121.31784,24.99449,121.31784
成功路口,24.99482+121.31637,24.99482,121.31637
東門國小,24.99371+121.31548,24.99371,121.31548
民生路口,24.99317+121.31374,24.99317,121.31374
桃園國小,24.99241+121.31117,24.99241,121.31117
春日健行路口,25.0221+121.30767,25.0221,121.30767
中正藝文特區,25.01468+121.29931,25.01468,121.29931
李氏宗祠,25.0199+121.28266,25.0199,121.28266
SOGO二館,24.95803+121.2197,24.95803,121.2197
銀店埤,25.0195+121.28625,25.0195,121.28625
莊二街,25.02297+121.29156,25.02297,121.29156
中正晶華,25.02378+121.29347,25.02378,121.29347
莊敬敬三街口,25.02166+121.29068,25.02166,121.29068
敬三街口,25.02014+121.28957,25.02014,121.28957
安慶街口,25.01826+121.2919,25.01826,121.2919
寶慶公園,25.01687+121.2926,25.01687,121.2926
同德國中,25.01579+121.29287,25.01579,121.29287
永安北路口,25.0141+121.2924,25.0141,121.2924
中埔二街,25.01291+121.29553,25.01291,121.29553
保定六街口,24.99915+121.30026,24.99915,121.30026
中央西路,24.95763+121.22258,24.95763,121.22258
忠二路口,24.99639+121.2999,24.99639,121.2999
廈門正光路口,24.99445+121.29567,24.99445,121.29567
正光法治路口,24.99323+121.29514,24.99323,121.29514
信陽街口,24.99272+121.29276,24.99272,121.29276
復旦新村,24.94453+121.19779,24.94453,121.19779
高山下,24.94232+121.19072,24.94232,121.19072
過嶺步道,24.94589+121.18831,24.94589,121.18831
長安路339巷,24.94958+121.19204,24.94958,121.19204
新明國小(明德路),24.95912+121.21662,24.95912,121.21662
長安路3巷,24.95603+121.19586,24.95603,121.19586
平鎮游泳池,24.95513+121.18939,24.95513,121.18939
麒麟山莊,24.9583+121.19031,24.9583,121.19031
陸光路一,24.95976+121.19023,24.95976,121.19023
陸光路二,24.9547+121.18726,24.9547,121.18726
新明國小,24.95873+121.21587,24.95873,121.21587
六和高中,24.94551+121.18611,24.94551,121.18611
庫房南路,24.9498+121.18474,24.9498,121.18474
陸光路福德祠,24.95374+121.183,24.95374,121.183
雙榮路241巷,24.95288+121.17822,24.95288,121.17822
忠勇西街站(G05),24.96794+121.30109,24.96794,121.30109
廣豐新天地,24.96447+121.30039,24.96447,121.30039
水流,24.99566+121.0768,24.99566,121.0768
德新橋,24.99953+121.07527,24.99953,121.07527
保生國小,25.00612+121.07196,25.00612,121.07196
保生廟,25.00806+121.06979,25.00806,121.06979
兩座厝,25.01149+121.06952,25.01149,121.06952
小飯壢,25.01878+121.07027,25.01878,121.07027
萬欣,25.02121+121.07166,25.02121,121.07166
廖厝,25.02497+121.07375,25.02497,121.07375
武威,25.02699+121.07455,25.02699,121.07455
桃園市政府,24.99183+121.30179,24.99183,121.30179
公廳背,25.02905+121.07531,25.02905,121.07531
塘背,25.03099+121.07536,25.03099,121.07536
溪內派出所,24.80342+121.36825,24.80342,121.36825
松柏園,24.93857+121.29736,24.93857,121.29736
瑞發家園,24.93383+121.29745,24.93383,121.29745
上合流,24.80196+121.36793,24.80196,121.36793
金暖,24.81014+121.37651,24.81014,121.37651
霞雲里,24.81663+121.38425,24.81663,121.38425
基國派,24.83447+121.33425,24.83447,121.33425
下基國派,24.83641+121.33642,24.83641,121.33642
大窩,24.83788+121.33874,24.83788,121.33874
西湖,24.83813+121.34255,24.83813,121.34255
新興,24.99495+121.2701,24.99495,121.2701
蝙蝠洞,24.83843+121.34924,24.83843,121.34924
建福新村,24.92038+121.13564,24.92038,121.13564
力行街口,24.97545+121.30243,24.97545,121.30243
利台,24.97684+121.30305,24.97684,121.30305
三民介壽路口,24.98274+121.30761,24.98274,121.30761
三民建國路口,24.9847+121.30743,24.9847,121.30743
南華街口,24.98999+121.30796,24.98999,121.30796
中華南華街口,24.9904+121.30844,24.9904,121.30844
下彭厝,24.92577+121.12989,24.92577,121.12989
香榭社區,24.93211+121.12518,24.93211,121.12518
老飯店,24.93429+121.12322,24.93429,121.12322
營盤下,24.93678+121.12381,24.93678,121.12381
上田里,24.94215+121.12157,24.94215,121.12157
御花園,24.9464+121.11984,24.9464,121.11984
全富新城,24.95226+121.118,24.95226,121.118
二號池,24.95478+121.11751,24.95478,121.11751
九斗里,24.96378+121.11238,24.96378,121.11238
石坡下,24.96756+121.11027,24.96756,121.11027
新屋,24.97113+121.10815,24.97113,121.10815
仁美國中,24.92272+121.18273,24.92272,121.18273
銘德,24.92251+121.18109,24.92251,121.18109
純青湖,24.92305+121.17782,24.92305,121.17782
日月光公司,24.97011+121.25214,24.97011,121.25214
內壢家樂福,24.97162+121.25337,24.97162,121.25337
光明聯福,25.04874+121.28891,25.04874,121.28891
中壢區殯葬服務中心,24.97696+121.22768,24.97696,121.22768
銀河餐廳,24.99299+121.27164,24.99299,121.27164
南竹奉化路口,25.04216+121.28576,25.04216,121.28576
光明國中(南竹路),25.04454+121.28841,25.04454,121.28841
五福宮(五權里),25.01753+121.22872,25.01753,121.22872
龍慈路口,24.94427+121.24837,24.94427,121.24837
富岡國小,24.93703+121.08056,24.93703,121.08056
朝靈宮,24.94087+121.078,24.94087,121.078
富岡國中,24.94246+121.07415,24.94246,121.07415
新復興公司,24.94201+121.06452,24.94201,121.06452
望間橋,24.94735+121.06419,24.94735,121.06419
十五間,24.94942+121.06046,24.94942,121.06046
新湖路口,24.95739+121.05126,24.95739,121.05126
上大坡,24.95797+121.04706,24.95797,121.04706
大坡國小,24.9575+121.04123,24.9575,121.04123
大坡(一),24.95892+121.03848,24.95892,121.03848
大坡里六鄰,24.95628+121.03076,24.95628,121.03076
後庄里林厝,24.95271+121.02218,24.95271,121.02218
後庄里社區活動中心,24.95149+121.01932,24.95149,121.01932
後庄里姜厝,24.95073+121.01652,24.95073,121.01652
後庄社區,24.94946+121.01129,24.94946,121.01129
市農會,24.99071+121.26725,24.99071,121.26725
金鋒市場,24.94632+121.24649,24.94632,121.24649
新明市場,24.95548+121.21629,24.95548,121.21629
笨港國小,24.97461+121.02702,24.97461,121.02702
士林紙廠,24.98182+121.02691,24.98182,121.02691
香坡華城,24.96616+121.03133,24.96616,121.03133
范厝,24.96472+121.03353,24.96472,121.03353
游屋莊,24.96284+121.0368,24.96284,121.0368
大坡農會,24.96014+121.04082,24.96014,121.04082
大坡(二),24.95937+121.03933,24.95937,121.03933
昌裕,24.98878+121.26733,24.98878,121.26733
富台國小,24.93953+121.25249,24.93953,121.25249
崎頂(原住民文化會館),24.89812+121.2847,24.89812,121.2847
新街尾(和平老街),24.88413+121.28935,24.88413,121.28935
桃園市客家文化館,24.84563+121.23465,24.84563,121.23465
石門車站(壩頂),24.81211+121.24739,24.81211,121.24739
石門水庫坪林收費站,24.82082+121.25568,24.82082,121.25568
文化路活魚街,24.84241+121.24099,24.84241,121.24099
北水局(石門大草坪),24.83658+121.24088,24.83658,121.24088
三坑老街,24.84201+121.24403,24.84201,121.24403
石門山登山口(石門山),24.81918+121.23792,24.81918,121.23792
龍潭科學園區二,24.88626+121.18775,24.88626,121.18775
六福中山路口,25.05908+121.29562,25.05908,121.29562
鶴年,24.98624+121.26791,24.98624,121.26791
建國國小,24.98357+121.31496,24.98357,121.31496
昆明路,24.98381+121.31726,24.98381,121.31726
宋天宮,24.98776+121.31795,24.98776,121.31795
林森路,24.98847+121.32001,24.98847,121.32001
紹興街口,24.98946+121.31792,24.98946,121.31792
長安街口,24.98818+121.31617,24.98818,121.31617
福豐街口,24.98705+121.31182,24.98705,121.31182
福豐公園,24.98632+121.31133,24.98632,121.31133
金兆興,24.9837+121.2681,24.9837,121.2681
建國郵局,24.98521+121.30931,24.98521,121.30931
建國三民路口,24.9851+121.30784,24.9851,121.30784
東福園,25.02631+121.16233,25.02631,121.16233
集貨場,25.02209+121.1651,25.02209,121.1651
山東里,25.01804+121.17179,25.01804,121.17179
茶寮,25.01348+121.17054,25.01348,121.17054
茶寮坡,25.01138+121.16898,25.01138,121.16898
穎西公司,25.01028+121.16847,25.01028,121.16847
舊瓦窯,25.00743+121.16755,25.00743,121.16755
山下,25.00468+121.16783,25.00468,121.16783
江山社區,24.98163+121.26828,24.98163,121.26828
下梁山,24.99942+121.17007,24.99942,121.17007
梁厝,24.99565+121.16982,24.99565,121.16982
林森路6巷,24.98782+121.32014,24.98782,121.32014
南華中華路口,24.9904+121.30839,24.9904,121.30839
茶專路,25.00133+121.35556,25.00133,121.35556
紅寶社區,25.0007+121.3657,25.0007,121.3657
全真道院,25.01145+121.38977,25.01145,121.38977
大慶新世紀,25.01455+121.39339,25.01455,121.39339
龍華科技大學,25.01768+121.40455,25.01768,121.40455
捷運迴龍站,25.02168+121.41165,25.02168,121.41165
龍山國小,24.97997+121.26881,24.97997,121.26881
仁和路口,24.90268+121.27457,24.90268,121.27457
萬寶龍社區,24.94041+121.2566,24.94041,121.2566
頂永安,24.99442+121.03486,24.99442,121.03486
永興牧場,24.99939+121.03615,24.99939,121.03615
頂大欄,25.00501+121.04109,25.00501,121.04109
過溪,25.01653+121.05173,25.01653,121.05173
對面厝,25.01868+121.05406,25.01868,121.05406
住都飯店,24.97603+121.32326,24.97603,121.32326
溪口台,24.80341+121.34659,24.80341,121.34659
溪口,24.79943+121.34342,24.79943,121.34342
優點頂,24.79772+121.34318,24.79772,121.34318
嘎巴鬧,24.7902+121.33274,24.7902,121.33274
上奎輝,24.79123+121.33325,24.79123,121.33325
奎輝,24.7972+121.33405,24.7972,121.33405
田尾,24.7987+121.32744,24.7987,121.32744
美腿山,24.79803+121.31388,24.79803,121.31388
竹頭角,24.79974+121.31004,24.79974,121.31004
長興,24.80057+121.30701,24.80057,121.30701
桃園郵局,24.99336+121.31174,24.99336,121.31174
高遶坪,24.80195+121.29849,24.80195,121.29849
高遶,24.80126+121.29009,24.80126,121.29009
桃源仙谷,24.78778+121.27828,24.78778,121.27828
上高遶,24.78572+121.27776,24.78572,121.27776
榮民南路,24.94189+121.25729,24.94189,121.25729
地方稅務局,24.99498+121.31979,24.99498,121.31979
市議會,24.99694+121.32241,24.99694,121.32241
台灣拉鍊,24.96463+121.23699,24.96463,121.23699
退輔會,24.94943+121.2425,24.94943,121.2425
自強路,24.99755+121.31833,24.99755,121.31833
福元街口,25.00924+121.31469,25.00924,121.31469
寶山大有路口,25.01284+121.3177,25.01284,121.3177
民光東路,25.00817+121.31895,25.00817,121.31895
新光三越,25.00839+121.32029,25.00839,121.32029
榮總門診大樓,25.00376+121.32372,25.00376,121.32372
寶山街口,25.01277+121.31847,25.01277,121.31847
興二街口,25.01776+121.31615,25.01776,121.31615
中壢簡易庭,24.9638+121.23461,24.9638,121.23461
快樂公園,25.01859+121.31579,25.01859,121.31579
市立殯儀館,25.0215+121.31459,25.0215,121.31459
健行路口,25.02265+121.31235,25.02265,121.31235
健行路,25.02198+121.30915,25.02198,121.30915
鹽庫西街口,25.02464+121.30663,25.02464,121.30663
水汴頭,25.02635+121.30592,25.02635,121.30592
春日路幸福路口,25.02909+121.3039,25.02909,121.3039
大潭國小,25.02208+121.05861,25.02208,121.05861
上大潭,25.0241+121.06067,25.0241,121.06067
下塘尾,25.02858+121.06725,25.02858,121.06725
塘尾,25.02942+121.0684,25.02942,121.0684
上塘尾,25.03184+121.07104,25.03184,121.07104
中壢聯合辦公大樓,24.96306+121.22923,24.96306,121.22923
塘頭,25.0345+121.07487,25.0345,121.07487
燈塔,25.03638+121.07938,25.03638,121.07938
觀音行政園區,25.02882+121.08468,25.02882,121.08468
坑尾里,25.03154+121.09353,25.03154,121.09353
上大坡腳,25.03018+121.10508,25.03018,121.10508
金石路口,25.02882+121.10711,25.02882,121.10711
金湖,25.02555+121.11237,25.02555,121.11237
瑞祥,25.0237+121.1153,25.0237,121.1153
新街,24.96167+121.22711,24.96167,121.22711
立隆,25.02239+121.11734,25.02239,121.11734
東元,25.02125+121.11915,25.02125,121.11915
水尾河,25.02067+121.12086,25.02067,121.12086
上水尾,25.0185+121.124,25.0185,121.124
寶蓮寺,25.01584+121.12975,25.01584,121.12975
益興,24.86166+121.28264,24.86166,121.28264
內柵,24.8597+121.28126,24.8597,121.28126
內柵廟,24.85726+121.28087,24.85726,121.28087
頂埔尾,24.85443+121.27935,24.85443,121.27935
埔尾水頭,24.85023+121.27564,24.85023,121.27564
華聲,24.844+121.27232,24.844,121.27232
石門新村,24.84265+121.27218,24.84265,121.27218
崁頭,24.8411+121.27222,24.8411,121.27222
崁頂,24.8387+121.27216,24.8387,121.27216
葫蘆坑,24.83329+121.27143,24.83329,121.27143
新溪洲,24.82951+121.26902,24.82951,121.26902
山腳,24.82321+121.26028,24.82321,121.26028
坪林,24.82214+121.25769,24.82214,121.25769
東山里,24.99091+121.31701,24.99091,121.31701
大埔心,25.04479+121.22366,25.04479,121.22366
中壢監理站,24.95974+121.225,24.95974,121.225
福山街口,25.01504+121.31159,25.01504,121.31159
大業路郵局,25.0129+121.31212,25.0129,121.31212
同德七街,25.0138+121.29405,25.0138,121.29405
綠意心賞,25.02375+121.29338,25.02375,121.29338
西埔,25.02563+121.27783,25.02563,121.27783
下埔子,25.01531+121.28519,25.01531,121.28519
西埔社區,25.01142+121.27709,25.01142,121.27709
華夏大飯店,25.06147+121.36443,25.06147,121.36443
國際永安路口,25.00806+121.28632,25.00806,121.28632
亞洲高球場,25.00425+121.28629,25.00425,121.28629
國際大興西路口,25.00126+121.28712,25.00126,121.28712
國際文中路口,24.99823+121.28794,24.99823,121.28794
中興國中,24.99577+121.29108,24.99577,121.29108
天台社區,25.0084+121.28955,25.0084,121.28955
桃園看守所,24.99393+121.29022,24.99393,121.29022
國際路口,24.98948+121.28874,24.98948,121.28874
永和市場,24.99733+121.3093,24.99733,121.3093
戶政地政所,24.99034+121.279,24.99034,121.279
國強七街口,24.9891+121.2795,24.9891,121.2795
龍鳳三街,24.98736+121.27959,24.98736,121.27959
文學苑社區,24.98873+121.27823,24.98873,121.27823
消防隊,24.99009+121.27759,24.99009,121.27759
國強十三街,24.9922+121.27553,24.9922,121.27553
龍壽街273巷,24.98896+121.26728,24.98896,121.26728
成功國小,24.99831+121.3073,24.99831,121.3073
龍翔托兒所,24.98025+121.26929,24.98025,121.26929
藝術名廈,24.99227+121.27666,24.99227,121.27666
永安路口,24.99726+121.30591,24.99726,121.30591
迪斯耐社區,24.99254+121.28585,24.99254,121.28585
國強一街,24.99278+121.2875,24.99278,121.2875
延壽街,24.99504+121.28831,24.99504,121.28831
國強一街口,24.99285+121.2878,24.99285,121.2878
國際京城,24.98778+121.28925,24.98778,121.28925
中德里市民活動中心,24.97746+121.28916,24.97746,121.28916
中山里活動中心,24.97497+121.28899,24.97497,121.28899
大湳給水廠,24.97355+121.28905,24.97355,121.28905
龍吟社區,24.96725+121.29229,24.96725,121.29229
崇德社區,24.96371+121.29252,24.96371,121.29252
中路北街口,24.96215+121.29293,24.96215,121.29293
無線電台站,24.97173+121.30183,24.97173,121.30183
大興西永安路口,25.00801+121.29379,25.00801,121.29379
中平路口,24.98706+121.29262,24.98706,121.29262
大成國小,24.9573+121.29784,24.9573,121.29784
福國街口,24.95546+121.29303,24.95546,121.29303
上興興中街口 ,25.01892+121.25931,25.01892,121.25931
竹圍,25.10584+121.24346,25.10584,121.24346
竹圍(福元宮),25.10772+121.24245,25.10772,121.24245
甲蟲公園,24.97758+121.25288,24.97758,121.25288
陸軍專科學校,24.93885+121.25925,24.93885,121.25925
聖恩宮,25.03475+121.11833,25.03475,121.11833
石梅,25.03218+121.12126,25.03218,121.12126
新坡御品,25.02369+121.1303,25.02369,121.1303
九崁店,24.99858+121.30338,24.99858,121.30338
青果中心,24.99262+121.32514,24.99262,121.32514
頂興路口,24.99292+121.32781,24.99292,121.32781
中原大學全人村,24.95829+121.24151,24.95829,121.24151
自立社區C區,24.96617+121.25221,24.96617,121.25221
八德區公所(農會),24.92917+121.28506,24.92917,121.28506
拔仔埔,24.99318+121.33026,24.99318,121.33026
陸光二村,24.99415+121.33477,24.99415,121.33477
萬壽中興路口,24.99477+121.33659,24.99477,121.33659
龜山,24.99521+121.33798,24.99521,121.33798
壽山高中,24.99471+121.34062,24.99471,121.34062
大同路口,24.99391+121.34077,24.99391,121.34077
民安路口,24.99957+121.30103,24.99957,121.30103
壽山高中(中興路),24.99488+121.34023,24.99488,121.34023
幼獅工業區,24.92569+121.1748,24.92569,121.1748
青年路口,24.92378+121.17216,24.92378,121.17216
青年路,24.92587+121.17029,24.92587,121.17029
圓環,24.92815+121.16894,24.92815,121.16894
世紀社區,24.93037+121.16692,24.93037,121.16692
裕民社區,24.93306+121.16324,24.93306,121.16324
幼獅路口,24.93503+121.16113,24.93503,121.16113
八角店(開南大學),25.01207+121.2752,25.01207,121.2752
臺灣菸酒公司,25.00344+121.30932,25.00344,121.30932
下內定,25.00702+121.24716,25.00702,121.24716
力行路口,25.0006+121.29946,25.0006,121.29946
南源公司,25.00881+121.24719,25.00881,121.24719
南坡頂,25.01012+121.24721,25.01012,121.24721
上崎腳,25.02096+121.2403,25.02096,121.2403
溪洲,25.04301+121.18401,25.04301,121.18401
崙后,25.05337+121.19311,25.05337,121.19311
萊爾富桃正店,25.05655+121.19572,25.05655,121.19572
蓮華寺,25.00338+121.29713,25.00338,121.29713
大興市場,25.06139+121.19422,25.06139,121.19422
大園區公所,25.0636+121.19556,25.0636,121.19556
永豐銀行,25.06627+121.19692,25.06627,121.19692
7-11國航門市,25.07053+121.19672,25.07053,121.19672
福忠宮牌樓,25.07603+121.20434,25.07603,121.20434
后厝國小,25.0809+121.21593,25.0809,121.21593
沙崙坡堵,25.09028+121.22927,25.09028,121.22927
永安溫州街口,25.0048+121.29591,25.0048,121.29591
樹仔坡,25.08739+121.25389,25.08739,121.25389
林口長庚醫院(復興一路前),25.05972+121.36804,25.05972,121.36804
埔心國小,25.04938+121.22375,25.04938,121.22375
大溪山水,24.89502+121.27706,24.89502,121.27706
凌雲國中,24.85914+121.20299,24.85914,121.20299
永豐市場,24.89639+121.21109,24.89639,121.21109
永美路,24.91814+121.18296,24.91814,121.18296
上大竹,25.02179+121.26279,25.02179,121.26279
南埔里活動中心,25.00603+121.29436,25.00603,121.29436
大竹,25.02394+121.25943,25.02394,121.25943
蘆竹親子館(大竹),25.02482+121.25699,25.02482,121.25699
奈德公司,25.03733+121.23269,25.03733,121.23269
上田心仔,25.06561+121.18845,25.06561,121.18845
田心仔,25.06583+121.18648,25.06583,121.18648
冾溪橋,25.06564+121.18379,25.06564,121.18379
新長發,25.06341+121.17838,25.06341,121.17838
南港,25.06138+121.1735,25.06138,121.1735
上伯公,24.86669+121.21357,24.86669,121.21357
忠恕家園,24.88767+121.21259,24.88767,121.21259
龍潭分局,24.86888+121.20775,24.86888,121.20775
橋下,24.92135+121.18317,24.92135,121.18317
大同公司,25.05758+121.16469,25.05758,121.16469
永安北路,25.00753+121.2914,25.00753,121.2914
浮圳,25.05493+121.15842,25.05493,121.15842
保障橋,25.05134+121.14964,25.05134,121.14964
保障宮,25.04869+121.14429,25.04869,121.14429
草漯,25.04778+121.14317,25.04778,121.14317
草音,25.04697+121.1422,25.04697,121.1422
草漯國中,25.04493+121.13972,25.04493,121.13972
瑞正,25.04291+121.13669,25.04291,121.13669
樹林,25.03831+121.12907,25.03831,121.12907
埔子(富國路口),25.00991+121.28857,25.00991,121.28857
詹厝前,25.03723+121.12666,25.03723,121.12666
富林,25.03686+121.12324,25.03686,121.12324
富林國小,25.03656+121.12093,25.03656,121.12093
富林社區,25.0363+121.11707,25.0363,121.11707
富林橋,25.03617+121.11567,25.03617,121.11567
溪底,25.03565+121.11079,25.03565,121.11079
上埔頂,25.03502+121.10488,25.03502,121.10488
小億,25.03456+121.09967,25.03456,121.09967
福星公司,25.03418+121.09666,25.03418,121.09666
無線電台,25.01349+121.28665,25.01349,121.28665
下溝尾,25.03422+121.09078,25.03422,121.09078
中心用品公司,25.03449+121.08871,25.03449,121.08871
遠東公司,25.03468+121.08672,25.03468,121.08672
觀音,25.03574+121.08382,25.03574,121.08382
千禧新城,25.00047+121.34213,25.00047,121.34213
光華派出所,24.65541+121.39932,24.65541,121.39932
復華,24.66164+121.35518,24.66164,121.35518
爺亨,24.6706+121.3734,24.6706,121.3734
三陽高平路,24.93658+121.14022,24.93658,121.14022
天成醫院,24.90843+121.15706,24.90843,121.15706
楊梅交流道,24.90849+121.16804,24.90849,121.16804
畜試所,24.89511+121.1086,24.89511,121.1086
三民金溪路口,24.90519+121.1739,24.90519,121.1739
富元街525巷口,24.92792+121.08702,24.92792,121.08702
北勢橋,24.92533+121.21249,24.92533,121.21249
長榮空廚,25.06769+121.27062,25.06769,121.27062
台茂,25.05243+121.28696,25.05243,121.28696
桃園醫院,24.97716+121.26915,24.97716,121.26915
文華國小,25.05163+121.36559,25.05163,121.36559
埔子下,25.01562+121.28513,25.01562,121.28513
文化七路,25.05334+121.36111,25.05334,121.36111
捷運環北站,24.96672+121.22163,24.96672,121.22163
機場諾富特旅館,25.06883+121.2201,25.06883,121.2201
南平中正路口,25.01848+121.29916,25.01848,121.29916
江夏科文祖堂,24.8463+121.19519,24.8463,121.19519
羅馬磁磚公司,24.83976+121.20621,24.83976,121.20621
渴望三期社區,24.84291+121.17603,24.84291,121.17603
中華龍壽街口,24.97772+121.27051,24.97772,121.27051
大湳市場,24.95885+121.29794,24.95885,121.29794
敏盛大園醫院,25.06183+121.19521,25.06183,121.19521
富國起毛廠,25.018+121.28419,25.018,121.28419
油欣精機,24.89475+121.13747,24.89475,121.13747
中壢農會,24.95545+121.22585,24.95545,121.22585
龍仁龍泉街口,24.93604+121.23347,24.93604,121.23347
莊敬里,24.90165+121.21133,24.90165,121.21133
仁美路,24.9219+121.18631,24.9219,121.18631
海湖工業區,25.10947+121.26513,25.10947,121.26513
光明國小,25.04159+121.29034,25.04159,121.29034
奉化南順一街口,25.04125+121.28546,25.04125,121.28546
長生電力公司,25.11342+121.2569,25.11342,121.2569
中正北路320巷,25.0358+121.28577,25.0358,121.28577
銀店子,25.01988+121.28271,25.01988,121.28271
長壽育英街口,24.9987+121.3388,24.9987,121.3388
內厝,24.98763+121.18966,24.98763,121.18966
中正三路406巷,24.93451+121.32636,24.93451,121.32636
中園育樂街口,24.96723+121.23654,24.96723,121.23654
郭祿五金,25.02069+121.23619,25.02069,121.23619
大同新村,24.99098+121.34395,24.99098,121.34395
豐田豐德路口,24.9256+121.2903,24.9256,121.2903
遠雄艾菲爾,24.92519+121.28677,24.92519,121.28677
興仁里,24.92643+121.28454,24.92643,121.28454
連城橋(姜太公廟),24.93141+121.27734,24.93141,121.27734
富國社區,25.02146+121.28104,25.02146,121.28104
建德興豐路口(G01),24.92963+121.28088,24.92963,121.28088
深耕十期社區,24.92591+121.28093,24.92591,121.28093
豐德中正路口,24.92475+121.28259,24.92475,121.28259
文明路,25.05452+121.37978,25.05452,121.37978
功學社,24.95492+121.25601,24.95492,121.25601
德明路口,24.98994+121.34455,24.98994,121.34455
資管大樓,24.98487+121.34178,24.98487,121.34178
銘傳大學,24.98354+121.34212,24.98354,121.34212
銘傳大學一,24.98461+121.34363,24.98461,121.34363
青埔致遠一路口,25.00773+121.21584,25.00773,121.21584
建國路631巷口,24.94663+121.28899,24.94663,121.28899
埔心,25.05394+121.22508,25.05394,121.22508
電研路188巷,24.95495+121.16772,24.95495,121.16772
新北大道(天祥街口),25.03008+121.41376,25.03008,121.41376
光明郵局,25.03889+121.29308,25.03889,121.29308
麗寶經典,25.03811+121.29127,25.03811,121.29127
奉化忠孝西路口,25.03956+121.28861,25.03956,121.28861
雙叉路口,25.01619+121.13536,25.01619,121.13536
坡內,25.01793+121.13779,25.01793,121.13779
廣福,25.02429+121.14205,25.02429,121.14205
福安橋,25.02854+121.14369,25.02854,121.14369
塔仔腳,25.03669+121.14391,25.03669,121.14391
二聖路口,25.03898+121.14393,25.03898,121.14393
草漯國小,25.04559+121.14291,25.04559,121.14291
草新,25.04687+121.14271,25.04687,121.14271
保障,25.05322+121.14716,25.05322,121.14716
新村路口,25.06268+121.13276,25.06268,121.13276
夏威夷社區,24.89639+121.16092,24.89639,121.16092
樹林新村,25.06127+121.12783,25.06127,121.12783
卜內門,25.0637+121.12596,25.0637,121.12596
日本礦業,25.06253+121.12453,25.06253,121.12453
光裕北街1,24.89955+121.16045,24.89955,121.16045
基富,25.05997+121.11875,25.05997,121.11875
僑愛基督長老教會,24.92372+121.29568,24.92372,121.29568
僑愛,24.92243+121.29476,24.92243,121.29476
僑愛國小,24.92029+121.29296,24.92029,121.29296
松樹腳,24.91442+121.28985,24.91442,121.28985
光裕北街2,24.89827+121.15851,24.89827,121.15851
大成社區,24.91112+121.28839,24.91112,121.28839
溫德爾幼稚園,24.90845+121.28683,24.90845,121.28683
新麗公司,24.90395+121.28445,24.90395,121.28445
太武,24.90174+121.28384,24.90174,121.28384
山鶯萬壽路口,24.99111+121.32323,24.99111,121.32323
光裕北街3,24.8946+121.16023,24.8946,121.16023
萬壽山鶯路口,24.99188+121.32229,24.99188,121.32229
名億,25.05898+121.11871,25.05898,121.11871
歌林二廠,25.05629+121.12009,25.05629,121.12009
日豐,25.05388+121.12093,25.05388,121.12093
樺秸,25.05243+121.11885,25.05243,121.11885
楊梅行政園區,24.89728+121.14953,24.89728,121.14953
工管中心,25.05246+121.11781,25.05246,121.11781
經建一路,25.05397+121.11703,25.05397,121.11703
臺玻,25.05988+121.11403,25.05988,121.11403
樹林仔,25.06387+121.1105,25.06387,121.1105
上邱厝,25.06222+121.10735,25.06222,121.10735
移民新村,25.06074+121.10524,25.06074,121.10524
林務局,25.05634+121.10159,25.05634,121.10159
白玉橋,25.05442+121.09899,25.05442,121.09899
白玉,25.05114+121.09526,25.05114,121.09526
塔前,25.04974+121.09399,25.04974,121.09399
老坑口,24.89871+121.15128,24.89871,121.15128
江厝,25.04753+121.09249,25.04753,121.09249
麥厝,25.04435+121.0895,25.04435,121.0895
歐厝,25.03936+121.08304,25.03936,121.08304
文三忠孝路口,25.07457+121.36559,25.07457,121.36559
中正同德十一街口,25.02088+121.29619,25.02088,121.29619
永興公園,24.86717+121.22411,24.86717,121.22411
花園國宅,24.86858+121.23022,24.86858,121.23022
武漢國小,24.87013+121.23502,24.87013,121.23502
東興,24.87289+121.23412,24.87289,121.23412
中興路55巷口,24.87646+121.24118,24.87646,121.24118
楊梅老人會館,24.90351+121.15042,24.90351,121.15042
民豐一街,24.88142+121.24275,24.88142,121.24275
興中宮,24.88338+121.24083,24.88338,121.24083
龍平路,24.88421+121.23791,24.88421,121.23791
武中路422巷口,24.88138+121.23582,24.88138,121.23582
武漢國中,24.87897+121.23214,24.87897,121.23214
布查花園,24.87694+121.23232,24.87694,121.23232
中興路336巷,24.87475+121.23248,24.87475,121.23248
國聯,24.87277+121.23274,24.87277,121.23274
國建二路,25.05829+121.11314,25.05829,121.11314
國瑞路,25.05976+121.11103,25.05976,121.11103
中山一路,24.92185+121.28294,24.92185,121.28294
中山路1巷,24.9062+121.14906,24.9062,121.14906
寶德堂,24.91811+121.28136,24.91811,121.28136
仁德街口,24.91426+121.28069,24.91426,121.28069
仁善國小,24.90916+121.27898,24.90916,121.27898
隆德街口,24.89857+121.27506,24.89857,121.27506
復興新城,24.89171+121.27319,24.89171,121.27319
頂好新城,24.88789+121.27007,24.88789,121.27007
齋明寺,24.88643+121.27003,24.88643,121.27003
員樹林農會,24.88386+121.26759,24.88386,121.26759
員樹林,24.89041+121.27145,24.89041,121.27145
忠勇二村,24.88104+121.26513,24.88104,121.26513
民族龍門街口,24.83341+121.23329,24.83341,121.23329
民生報社,24.90722+121.14799,24.90722,121.14799
綠光森林,24.81745+121.3749,24.81745,121.3749
至善新村,24.87663+121.26311,24.87663,121.26311
海山大有街口,25.09364+121.26714,25.09364,121.26714
大興大業路口,25.01585+121.31178,25.01585,121.31178
會稽國中,25.01608+121.31368,25.01608,121.31368
南平同安街口,25.01982+121.30247,25.01982,121.30247
李屋,24.92932+121.21375,24.92932,121.21375
天乙藥局,24.90793+121.14728,24.90793,121.14728
下王屋,24.9228+121.21196,24.9228,121.21196
王屋,24.92093+121.21147,24.92093,121.21147
臺灣桃園地方法院檢察署,25.00602+121.28777,25.00602,121.28777
民生建國路口,24.84853+121.22984,24.84853,121.22984
健康,24.84336+121.20987,24.84336,121.20987
銅鑼圈,24.83551+121.20703,24.83551,121.20703
高原郵局,24.84605+121.19854,24.84605,121.19854
宜欣陽光,24.85184+121.20092,24.85184,121.20092
嘉裕紡織,24.95807+121.16854,24.95807,121.16854
泥橋子,24.84902+121.19734,24.84902,121.19734
高平消防隊,24.84126+121.184,24.84126,121.184
渴望會館,24.84+121.18277,24.84,121.18277
名人社區,24.84135+121.17865,24.84135,121.17865
希望四季,24.83808+121.18714,24.83808,121.18714
法蘭朵社區,24.83517+121.19032,24.83517,121.19032
渴望路口,24.83318+121.19296,24.83318,121.19296
高原工業區,24.83098+121.19896,24.83098,121.19896
三元宮路口,24.83371+121.20232,24.83371,121.20232
南四方林,24.85564+121.20286,24.85564,121.20286
崙頂,25.05818+121.16609,25.05818,121.16609
大安街口,25.02151+121.21523,25.02151,121.21523
配銷所,24.86959+121.25849,24.86959,121.25849
蕃仔寮,24.86561+121.25246,24.86561,121.25246
皇家社區,24.86189+121.25083,24.86189,121.25083
淮子埔,24.85407+121.25087,24.85407,121.25087
漢英高中,24.84813+121.24421,24.84813,121.24421
十一份,24.84222+121.24078,24.84222,121.24078
石門國中,24.84043+121.24046,24.84043,121.24046
三林,24.84454+121.23639,24.84454,121.23639
三角林,24.84946+121.22974,24.84946,121.22974
上華,24.85314+121.22318,24.85314,121.22318
雙連街口,24.85423+121.22063,24.85423,121.22063
民族路311巷口,24.838+121.23458,24.838,121.23458
中山復興路口,24.95598+121.22441,24.95598,121.22441
薇爾文教機構,24.98179+121.31926,24.98179,121.31926
龜山工業區服務中心,24.98368+121.32319,24.98368,121.32319
興邦建國路口,24.98532+121.32236,24.98532,121.32236
桃園高中,24.99905+121.32594,24.99905,121.32594
龍星國小,24.86277+121.21754,24.86277,121.21754
自強公園,24.96764+121.25902,24.96764,121.25902
中正北龍路口,24.86759+121.21567,24.86759,121.21567
建國路70巷口,24.84269+121.23449,24.84269,121.23449
建國路180巷口,24.84477+121.23297,24.84477,121.23297
陸光五村,24.96601+121.25963,24.96601,121.25963
南亞(好市多),25.05437+121.28349,25.05437,121.28349
羅丹社區,25.04938+121.16548,25.04938,121.16548
聖亭復興路口,24.86905+121.20567,24.86905,121.20567
懷寧醫院(正光街),24.96126+121.2057,24.96126,121.2057
福森山莊,24.70108+121.42023,24.70108,121.42023
非常大地,24.93574+121.21563,24.93574,121.21563
永隆農場,24.69272+121.41386,24.69272,121.41386
達觀農場,24.69075+121.41119,24.69075,121.41119
峻林農場,24.69016+121.40953,24.69016,121.40953
停車場,24.69057+121.4065,24.69057,121.4065
長祥宮(中華南路),24.95885+121.1151,24.95885,121.1151
臨時站,24.73807+121.35012,24.73807,121.35012
雪霧鬧,24.74715+121.3537,24.74715,121.3537
羅福派出所,24.7991+121.36513,24.7991,121.36513
成福路口,24.81425+121.35331,24.81425,121.35331
復興,24.81462+121.35094,24.81462,121.35094
溪海國小,25.04661+121.18668,25.04661,121.18668
三坑,24.84208+121.244,24.84208,121.244
永興,24.83775+121.24611,24.83775,121.24611
大坪,24.82995+121.24343,24.82995,121.24343
鴻濱,24.82747+121.24004,24.82747,121.24004
民治七街,24.82256+121.23602,24.82256,121.23602
石門山登山口1,24.82052+121.23749,24.82052,121.23749
石門山登山口2,24.81909+121.23785,24.81909,121.23785
收費站,24.81542+121.24111,24.81542,121.24111
依山閣,24.81131+121.24023,24.81131,121.24023
嵩台,24.8106+121.24364,24.8106,121.24364
石門車站,24.81211+121.24739,24.81211,121.24739
逸園,24.84095+121.23563,24.84095,121.23563
金山社區,24.8355+121.2334,24.8355,121.2334
長榮吉邸,25.04823+121.3012,25.04823,121.3012
澹園,24.82758+121.2309,24.82758,121.2309
配銷中心,24.92412+121.24627,24.92412,121.24627
坑菓幸福路口,25.08134+121.26143,25.08134,121.26143
三民坑果路口,25.07972+121.25868,25.07972,121.25868
草嶺腳(富田農場),24.84278+121.28722,24.84278,121.28722
中華電信大溪服務中心,24.88167+121.28893,24.88167,121.28893
觀音寺,24.88747+121.28661,24.88747,121.28661
莊敬敬二街口,25.02286+121.29391,25.02286,121.29391
中壢總站,24.95319+121.22401,24.95319,121.22401
東福,24.97537+121.08047,24.97537,121.08047
技訓中心,25.00082+121.32446,25.00082,121.32446
春日路,25.00147+121.31388,25.00147,121.31388
旭登護理之家,24.97523+121.31026,24.97523,121.31026
中華路農會,24.87645+121.2911,24.87645,121.2911
龍潭行政園區,24.87043+121.22281,24.87043,121.22281
蘆竹郵局,25.0548+121.29088,25.0548,121.29088
偉辰公司,25.07936+121.31554,25.07936,121.31554
仁愛社區,24.9566+121.25307,24.9566,121.25307
莊敬富國街口,24.96823+121.25748,24.96823,121.25748
民生成功路口,24.99262+121.3136,24.99262,121.3136
高義國小,24.71221+121.36021,24.71221,121.36021
上高義,24.70755+121.35483,24.70755,121.35483
月桃路381巷口,25.01506+121.17639,25.01506,121.17639
山東路1450巷口,25.0194+121.17493,25.0194,121.17493
山安路76巷口,25.02211+121.17551,25.02211,121.17551
山安安大路口,25.0247+121.17193,25.0247,121.17193
山大二路38巷口,25.02648+121.16848,25.02648,121.16848
山大二路198巷口,25.02476+121.16588,25.02476,121.16588
圓光山東路口,25.0093+121.1685,25.0093,121.1685
亞洲工業,24.83712+121.20973,24.83712,121.20973
高平水廠,24.82532+121.216,24.82532,121.216
十股,24.82144+121.21568,24.82144,121.21568
龍源國小,24.82417+121.21,24.82417,121.21
高平活動中心,24.82666+121.20634,24.82666,121.20634
彩虹玫瑰社區,24.94098+121.21025,24.94098,121.21025
忠貞國小,24.92226+121.25073,24.92226,121.25073
官路缺,24.91937+121.2538,24.91937,121.2538
大社區,24.91694+121.25558,24.91694,121.25558
建安家園,24.91425+121.25469,24.91425,121.25469
洪圳路口,24.91131+121.25447,24.91131,121.25447
霄裡池,24.91047+121.2555,24.91047,121.2555
建國十一村,25.05536+121.22673,25.05536,121.22673
雙溪口,25.0389+121.1825,25.0389,121.1825
金城家園,24.90844+121.25823,24.90844,121.25823
英業達,24.90705+121.26012,24.90705,121.26012
太平洋電纜,24.90542+121.2624,24.90542,121.2624
南興,24.90394+121.26437,24.90394,121.26437
元翔社區,24.90306+121.2672,24.90306,121.2672
保固,24.90285+121.26968,24.90285,121.26968
碧寶,24.90228+121.27299,24.90228,121.27299
埔頂廟,24.90152+121.27522,24.90152,121.27522
金仙寺,24.89441+121.27988,24.89441,121.27988
麻園(G03),24.94762+121.29766,24.94762,121.29766
合隆公司,25.03672+121.18065,25.03672,121.18065
成功路,24.99272+121.31244,24.99272,121.31244
東眼山國家森林遊樂區(下客站),24.83152+121.4079,24.83152,121.4079
東眼山國家森林遊樂區(上客站),24.83224+121.40862,24.83224,121.40862
建漢公司,24.89869+121.28128,24.89869,121.28128
瑞源,24.88178+121.26508,24.88178,121.26508
大興同安街口,25.01438+121.30508,25.01438,121.30508
大興西新埔六街口,25.01305+121.30221,25.01305,121.30221
新厝江,24.88028+121.26181,24.88028,121.26181
虎頭山創新園區,24.9975+121.32495,24.9975,121.32495
仁德路口,25.05757+121.19738,25.05757,121.19738
紅土厝,25.03051+121.1793,25.03051,121.1793
琪隆廠,24.89833+121.13607,24.89833,121.13607
強勝廠,24.89831+121.13403,24.89831,121.13403
里辦公處,24.89574+121.12956,24.89574,121.12956
潤泰工廠,24.89323+121.12533,24.89323,121.12533
廣宇,24.89194+121.12436,24.89194,121.12436
梅園,24.89145+121.11674,24.89145,121.11674
八股路口,25.06443+121.26324,25.06443,121.26324
桃園後火車站,24.98833+121.31431,24.98833,121.31431
崎頂路口,25.02873+121.18181,25.02873,121.18181
群益幼稚園,24.96375+121.2647,24.96375,121.2647
萊茵城堡,24.87937+121.25928,24.87937,121.25928
忠烈祠,25.00581+121.32441,25.00581,121.32441
三元成功路三段221巷口,25.00765+121.32267,25.00765,121.32267
草厝江,24.87831+121.25636,24.87831,121.25636
雄華,24.87671+121.25353,24.87671,121.25353
馮媽崎,24.87585+121.25133,24.87585,121.25133
九座寮,24.8793+121.24772,24.8793,121.24772
郡國社區,24.8777+121.24381,24.8777,121.24381
中興里,24.87678+121.24152,24.87678,121.24152
國防大學,24.87554+121.23868,24.87554,121.23868
雙叉港,25.02686+121.18327,25.02686,121.18327
九龍里,24.87468+121.23605,24.87468,121.23605
郵局,24.87415+121.23419,24.87415,121.23419
聯合社區,24.87308+121.23062,24.87308,121.23062
黃泥塘,24.87152+121.22552,24.87152,121.22552
龍潭運動公園,24.86858+121.21859,24.86858,121.21859
民生街505巷,24.94589+121.08735,24.94589,121.08735
新興路1155巷口,24.93894+121.27206,24.93894,121.27206
伯公廟,24.9413+121.27483,24.9413,121.27483
郭厝,25.02469+121.18412,25.02469,121.18412
捷運桃園體育園區站,25.00197+121.20335,25.00197,121.20335
中正莊敬路口,25.02234+121.29548,25.02234,121.29548
青昇二街口,25.01798+121.22024,25.01798,121.22024
國立體育大學志清湖,25.03381+121.38657,25.03381,121.38657
民生街221巷,24.94023+121.08695,24.94023,121.08695
劉屋(晴耕雨讀小書院),24.88805+121.22333,24.88805,121.22333
中華民族路口,24.99051+121.30924,24.99051,121.30924
捷運領航站,25.02311+121.22142,25.02311,121.22142
大業向善街口,25.01918+121.31057,25.01918,121.31057
向陽運動公園,24.99855+121.29646,24.99855,121.29646
龍元宮,24.86512+121.21391,24.86512,121.21391
大同富山五街口,24.85856+121.22051,24.85856,121.22051
梅龍路700巷口,24.87829+121.18761,24.87829,121.18761
龍潭科學園區大門,24.89521+121.18429,24.89521,121.18429
南竹蘆興街口,25.03678+121.27998,25.03678,121.27998
大溪總站,24.88113+121.28805,24.88113,121.28805
三板橋,24.87523+121.28651,24.87523,121.28651
大溪高中,24.86937+121.28491,24.86937,121.28491
邱厝,25.03271+121.14371,25.03271,121.14371
至善高中,24.86674+121.28409,24.86674,121.28409
榮民工廠,24.96066+121.26424,24.96066,121.26424
大成大智路口,25.0231+121.2176,25.0231,121.2176
太子地球村,24.99974+121.34678,24.99974,121.34678
中正信光街口,25.00478+121.3048,25.00478,121.3048
中正慈文路口,25.00686+121.30336,25.00686,121.30336
新埔公園,25.01529+121.3037,25.01529,121.3037
榮興南路永興宮,24.94831+121.30578,24.94831,121.30578
大安社區活動中心,24.9572+121.31288,24.9572,121.31288
噶舉瑪倉派佛學院,25.07058+121.27498,25.07058,121.27498
坑口二站,25.09113+121.27318,25.09113,121.27318
貿易一村,24.98835+121.33146,24.98835,121.33146
山頂里,24.9874+121.33053,24.9874,121.33053
南山長榮路口,25.05779+121.28912,25.05779,121.28912
中壢客運桃園站,24.99074+121.31348,24.99074,121.31348
藝墅天地,24.94846+121.28952,24.94846,121.28952
家榮社區,24.93301+121.30002,24.93301,121.30002
生態公園,24.94089+121.31132,24.94089,121.31132
和平社區活動中心,24.95554+121.31632,24.95554,121.31632
桃園農工,24.99549+121.32112,24.99549,121.32112
潛龍國小,24.88157+121.21172,24.88157,121.21172
第一製藥廠,24.94055+121.2165,24.94055,121.2165
體育館,24.99584+121.32246,24.99584,121.32246
新科廠,24.84559+121.19885,24.84559,121.19885
雄獅文具,24.84213+121.19669,24.84213,121.19669
白宮,24.83842+121.19511,24.83842,121.19511
渴望園區,24.83324+121.19369,24.83324,121.19369
高原,24.83017+121.19282,24.83017,121.19282
小人國,24.8312+121.18712,24.8312,121.18712
福源路,24.82759+121.19005,24.82759,121.19005
基地醫院,25.05735+121.22964,25.05735,121.22964
台全,24.82727+121.18842,24.82727,121.18842
橫岡下,24.82666+121.18708,24.82666,121.18708
六福村,24.82189+121.18494,24.82189,121.18494
六福村門口,24.82557+121.18065,24.82557,121.18065
車頭,24.83799+121.20852,24.83799,121.20852
龜山國小,24.99265+121.33897,24.99265,121.33897
國際慈文路口,24.99999+121.28782,24.99999,121.28782
吉安街101巷,25.00473+121.29193,25.00473,121.29193
賦梅路50巷,24.94406+121.20062,24.94406,121.20062
下月眉,25.0205+121.18477,25.0205,121.18477
福元宮,25.10835+121.24197,25.10835,121.24197
莊敬中正路口,25.02374+121.29582,25.02374,121.29582
長壽路,24.99716+121.33264,24.99716,121.33264
中埔一街口,25.01085+121.29718,25.01085,121.29718
長榮,25.04211+121.2952,25.04211,121.2952
陸光新城,24.99596+121.3326,24.99596,121.3326
龍廷社區,25.00338+121.35043,25.00338,121.35043
裕元紡織,25.00776+121.35371,25.00776,121.35371
儲水池,25.01014+121.35578,25.01014,121.35578
舊路坑,25.01315+121.35998,25.01315,121.35998
紅崁,25.01794+121.18504,25.01794,121.18504
中央造幣廠,25.01475+121.36057,25.01475,121.36057
舊路橋,25.01702+121.36201,25.01702,121.36201
北天宮,25.01953+121.36256,25.01953,121.36256
集會地,25.02184+121.36376,25.02184,121.36376
西勢湖,25.02469+121.36803,25.02469,121.36803
大埔橋,25.02824+121.37357,25.02824,121.37357
振天宮,25.03078+121.37666,25.03078,121.37666
體育大學行政教學大樓,25.03127+121.38807,25.03127,121.38807
長庚科技大學,25.03114+121.38995,25.03114,121.38995
詹厝,25.015+121.18457,25.015,121.18457
大埔,25.0331+121.37963,25.0331,121.37963
鎮南宮,24.92799+121.28232,24.92799,121.28232
捷運坑口站,25.08676+121.26554,25.08676,121.26554
國際村,25.02367+121.29589,25.02367,121.29589
桃林鐵路長興站,25.07322+121.2824,25.07322,121.2824
長興路三段217號,25.07238+121.27776,25.07238,121.27776
建國十九村,25.04342+121.25143,25.04342,121.25143
大華集會所,25.04148+121.25526,25.04148,121.25526
興仁公園,24.9662+121.26297,24.9662,121.26297
新中北華美路口,24.95625+121.2615,24.95625,121.2615
仁愛里,24.95693+121.25835,24.95693,121.25835
功學社區,24.95689+121.25603,24.95689,121.25603
營頭厝,24.95692+121.25043,24.95692,121.25043
中原大學信實宿舍,24.95762+121.2454,24.95762,121.2454
中原國小,24.95659+121.23853,24.95659,121.23853
新中北路口,24.95579+121.23605,24.95579,121.23605
東勇二路口,24.96783+121.30682,24.96783,121.30682
大安活動中心,24.9572+121.31288,24.9572,121.31288
國產電子,24.96242+121.30678,24.96242,121.30678
大坪頂公園,25.05394+121.367,25.05394,121.367
五福,25.01613+121.22841,25.01613,121.22841
文興街口,25.05017+121.17594,25.05017,121.17594
園八街口,25.05324+121.1778,25.05324,121.1778
園九街口,25.05183+121.17628,25.05183,121.17628
成功社區,25.09987+121.23878,25.09987,121.23878
民豐一街47號,24.87838+121.24275,24.87838,121.24275
月眉,25.011+121.18414,25.011,121.18414
高原國小,24.82972+121.19337,24.82972,121.19337
富鑽工業城,24.83311+121.21416,24.83311,121.21416
代天宮,25.00098+121.32899,25.00098,121.32899
虎頭山公園,25.00257+121.32712,25.00257,121.32712
文德路口,25.05644+121.37821,25.05644,121.37821
中國科技大樓,25.05531+121.36134,25.05531,121.36134
文化七路口,25.05452+121.36007,25.05452,121.36007
大崗國小,25.05399+121.35929,25.05399,121.35929
婦幼館,25.05084+121.35897,25.05084,121.35897
雙圳口,25.0044+121.18166,25.0044,121.18166
工四工業區,25.04636+121.36031,25.04636,121.36031
頂湖路,25.04382+121.36135,25.04382,121.36135
長庚醫院桃園分院,25.02986+121.36649,25.02986,121.36649
三聖宮,25.00043+121.33171,25.00043,121.33171
醫學大樓,25.05978+121.36517,25.05978,121.36517
文桃路(樂安街435巷口),25.0468+121.39298,25.0468,121.39298
中央中豐路口,24.95803+121.21973,24.95803,121.21973
豐田路,24.92738+121.28991,24.92738,121.28991
建國公園,24.95615+121.29488,24.95615,121.29488
和平路口,24.95759+121.30001,24.95759,121.30001
鳥仔厝,25.00174+121.1814,25.00174,121.1814
國民運動中心,24.96414+121.21477,24.96414,121.21477
光明社區,25.10883+121.25185,25.10883,121.25185
航空城聯合服務中心,25.07105+121.20495,25.07105,121.20495
南和園學路口,25.04731+121.16868,25.04731,121.16868
大同龍華路口,24.85732+121.21714,24.85732,121.21714
大同路,24.9565+121.22176,24.9565,121.22176
中美路,24.95964+121.2233,24.95964,121.2233
建德長興路口,24.93145+121.28102,24.93145,121.28102
烏仔厝,25.00163+121.18138,25.00163,121.18138
下烏仔厝,24.99894+121.18073,24.99894,121.18073
下鳥仔厝,24.99888+121.1807,24.99888,121.1807
南方莊園,24.96757+121.17735,24.96757,121.17735
中平國小(雙福路),24.96054+121.17691,24.96054,121.17691
供應站,24.92631+121.24574,24.92631,121.24574
貿易七村,24.92906+121.25146,24.92906,121.25146
基安二村,24.93323+121.25587,24.93323,121.25587
晉元榮民南路口,24.94926+121.25751,24.94926,121.25751
晉元華勛街口,24.95034+121.26079,24.95034,121.26079
晉元仁德三街口,24.95134+121.2627,24.95134,121.2627
仁美新村,24.95214+121.265,24.95214,121.265
仁德公園,24.9529+121.26676,24.9529,121.26676
大崙國中,24.99108+121.17974,24.99108,121.17974
崁頂廣福路口,24.95551+121.26608,24.95551,121.26608
廣福路1142巷,24.95839+121.27129,24.95839,121.27129
廣福路879巷,24.96012+121.27769,24.96012,121.27769
中祥食品,24.96033+121.28416,24.96033,121.28416
橋頭,25.05867+121.23168,25.05867,121.23168
廣福路530巷,24.96011+121.28652,24.96011,121.28652
廣福路389巷,24.95982+121.28895,24.95982,121.28895
廣福路(廣隆街口),24.95956+121.29179,24.95956,121.29179
景雲新村,24.95952+121.29479,24.95952,121.29479
捷運永寧站,24.96589+121.43613,24.96589,121.43613
中央塗料公司,24.99359+121.17947,24.99359,121.17947
榮民南仁慈路口,24.94548+121.25685,24.94548,121.25685
榮民南華勛街口,24.94298+121.258,24.94298,121.258
仁德廣興路口,24.93609+121.28371,24.93609,121.28371
溪濱公園,24.93564+121.28098,24.93564,121.28098
台北新境,25.0812+121.38862,25.0812,121.38862
中壢北站,24.95433+121.22618,24.95433,121.22618
仁安魏屋,24.80899+121.19684,24.80899,121.19684
領航北民權路口,25.00774+121.20235,25.00774,121.20235
水尾橋,24.91418+121.1424,24.91418,121.1424
捷運高鐵桃園站,25.01276+121.21386,25.01276,121.21386
領航北公園路口,25.00896+121.20396,25.00896,121.20396
華勛園,24.94882+121.26116,24.94882,121.26116
義民路口,24.95459+121.21697,24.95459,121.21697
育達路口,24.95116+121.21345,24.95116,121.21345
育達商職,24.95179+121.20942,24.95179,121.20942
上中原,24.94653+121.20107,24.94653,121.20107
下中原,24.94578+121.19974,24.94578,121.19974
七星工廠,24.94361+121.19617,24.94361,121.19617
水美國小,24.91823+121.13787,24.91823,121.13787
下中福,25.01988+121.25033,25.01988,121.25033
新庄社區,25.02211+121.24789,25.02211,121.24789
吉安街口,25.00334+121.28818,25.00334,121.28818
中興莊,24.93998+121.2307,24.93998,121.2307
龍泉街口,24.93603+121.23334,24.93603,121.23334
龍岡森林公園,24.93324+121.23671,24.93324,121.23671
崁頂路,24.93439+121.25995,24.93439,121.25995
霄裡,24.93339+121.26405,24.93339,121.26405
霄裡農會,24.93318+121.26608,24.93318,121.26608
頂湖橋,24.91863+121.13673,24.91863,121.13673
竹頭坡,24.93274+121.27087,24.93274,121.27087
興仁路,24.92578+121.28357,24.92578,121.28357
南崁,25.0477+121.29198,25.0477,121.29198
台灣松下,25.05891+121.27508,25.05891,121.27508
三商,25.06099+121.2705,25.06099,121.2705
菓林,25.07555+121.26044,25.07555,121.26044
崁下,25.07874+121.25925,25.07874,121.25925
桃園機場貨運站,25.08817+121.24474,25.08817,121.24474
桃園機場航郵中心,25.08619+121.2418,25.08619,121.2418
桃園機場第二航廈,25.07787+121.23272,25.07787,121.23272
頂湖,24.9209+121.1282,24.9209,121.1282
桃園機場第一航廈,25.08064+121.23692,25.08064,121.23692
大湳消防分隊,24.95673+121.296,24.95673,121.296
電信器材場,24.94088+121.25124,24.94088,121.25124
松勤松義三街口,24.96035+121.16439,24.96035,121.16439
高鐵南過嶺路口,24.967+121.16948,24.967,121.16948
高鐵南文德路口,25.00449+121.20654,25.00449,121.20654
明興街口,24.98643+121.33023,24.98643,121.33023
福豐國中,24.97614+121.31458,24.97614,121.31458
綠園新村,25.02562+121.2573,25.02562,121.2573
捷運新莊站(新莊郵局),25.03564+121.44978,25.03564,121.44978
新泰路口,25.03526+121.44809,25.03526,121.44809
海山里,25.0348+121.44595,25.0348,121.44595
三洋,25.03031+121.42676,25.03031,121.42676
迴龍派出所,25.01971+121.40918,25.01971,121.40918
大慶連莊,25.01678+121.40041,25.01678,121.40041
龍壽里,25.0165+121.39659,25.0165,121.39659
福惠寺,25.01626+121.39277,25.01626,121.39277
尖山腳,25.01238+121.38745,25.01238,121.38745
南龍壽,25.01163+121.37921,25.01163,121.37921
瑞上,24.92249+121.12113,24.92249,121.12113
東影,25.01138+121.37357,25.01138,121.37357
六股,25.00847+121.36951,25.00847,121.36951
壽山巖,25.003+121.36698,25.003,121.36698
嶺頂,25.00194+121.36314,25.00194,121.36314
半嶺,25.00101+121.34827,25.00101,121.34827
國際大郡,24.98722+121.28841,24.98722,121.28841
迪斯奈社區,24.99263+121.28569,24.99263,121.28569
桃園戶政事務所,24.98854+121.27911,24.98854,121.27911
國豐六街口,24.99092+121.27728,24.99092,121.27728
富鳳,24.92304+121.11805,24.92304,121.11805
龍安市場,24.98923+121.28014,24.98923,121.28014
中央延平路口,24.95709+121.22403,24.95709,121.22403
華宏補習班,24.95992+121.21346,24.95992,121.21346
麗寶麗池,24.93794+121.2496,24.93794,121.2496
美食天地,24.93554+121.24951,24.93554,121.24951
龍川街,24.93472+121.24856,24.93472,121.24856
老坑溪橋,24.90728+121.14909,24.90728,121.14909
蘆竹區公所,25.04645+121.29485,25.04645,121.29485
玉尊宮,24.97737+121.23631,24.97737,121.23631
吉林路口,24.98051+121.24892,24.98051,121.24892
土地宮,24.97954+121.23634,24.97954,121.23634
石店子,24.92421+121.11259,24.92421,121.11259
桃園大圳橋,24.98487+121.23798,24.98487,121.23798
美和園社區,25.00157+121.36029,25.00157,121.36029
捷運輔大站,25.0322+121.43276,25.0322,121.43276
中堅,24.93551+121.25764,24.93551,121.25764
龍文街正義路口,24.93615+121.25601,24.93615,121.25601
村口,25.04311+121.25461,25.04311,121.25461
建國六村,25.03975+121.2552,25.03975,121.2552
大華國小,25.03868+121.2542,25.03868,121.2542
橋頂,25.03699+121.25291,25.03699,121.25291
建國五村,25.03464+121.2517,25.03464,121.2517
亞洲化學,24.9257+121.10882,24.9257,121.10882
醒吾科技大學,25.07847+121.39516,25.07847,121.39516
林口,25.07862+121.39275,25.07862,121.39275
中山路口,25.07876+121.39127,25.07876,121.39127
林口農會,25.07884+121.39038,25.07884,121.39038
頭湖路口,25.07918+121.38722,25.07918,121.38722
湖南里,25.07903+121.38502,25.07903,121.38502
東湖頭,25.07798+121.38333,25.07798,121.38333
林口國中,25.07496+121.37798,25.07496,121.37798
崇林國中,25.06855+121.36981,25.06855,121.36981
瑞原,24.92768+121.10482,24.92768,121.10482
同安國小,25.02202+121.29913,25.02202,121.29913
上楓樹林,25.02437+121.35218,25.02437,121.35218
阿姆坪生態園區,24.81574+121.3042,24.81574,121.3042
阿姆坪舊碼頭,24.8175+121.31052,24.8175,121.31052
萬聖堂,24.80976+121.2614,24.80976,121.2614
廣興國小,24.94513+121.28366,24.94513,121.28366
過田,25.10609+121.24528,25.10609,121.24528
遠雄自貿港,25.09948+121.25494,25.09948,121.25494
遠雄加值園區,25.0924+121.25481,25.0924,121.25481
環西五族街口,24.9599+121.20719,24.9599,121.20719
宏洲公司,25.00904+121.34492,25.00904,121.34492
民富工業區,24.92924+121.10175,24.92924,121.10175
中原大學,24.95534+121.23493,24.95534,121.23493
中北路口,24.94949+121.22389,24.94949,121.22389
陸光三村,25.00039+121.34235,25.00039,121.34235
精忠五村,25.00317+121.34284,25.00317,121.34284
下湖,25.03966+121.35378,25.03966,121.35378
電台,24.9326+121.17121,24.9326,121.17121
職訓中心,24.93071+121.1724,24.93071,121.1724
單身宿舍,24.92945+121.17196,24.92945,121.17196
富東,24.93045+121.09927,24.93045,121.09927
比佛利山莊,24.9213+121.17166,24.9213,121.17166
獅一路,24.92298+121.17371,24.92298,121.17371
福興社區,24.93227+121.28442,24.93227,121.28442
水頭,24.84733+121.27369,24.84733,121.27369
鳳山街口,25.02478+121.41295,25.02478,121.41295
文成北街口,24.97931+121.25266,24.97931,121.25266
鍾愛社區,24.9808+121.25534,24.9808,121.25534
福華街口,24.97907+121.25776,24.97907,121.25776
忠孝路,24.9782+121.25459,24.9782,121.25459
埔頂八街口,24.90626+121.27767,24.90626,121.27767
清龍新村,24.93217+121.09567,24.93217,121.09567
同心一路,24.99581+121.33173,24.99581,121.33173
劉屋,24.88792+121.22322,24.88792,121.22322
龍平路口,24.88548+121.22181,24.88548,121.22181
上燈潭,24.8806+121.21986,24.8806,121.21986
龍心悅社區,24.87516+121.21826,24.87516,121.21826
捷運山鼻站,25.08043+121.28597,25.08043,121.28597
榮民南路65巷口,24.95579+121.25832,24.95579,121.25832
泰圳路1080巷口,24.90456+121.09548,24.90456,121.09548
龍潭加油站,24.86765+121.21684,24.86765,121.21684
高山活動中心,24.93277+121.15686,24.93277,121.15686
龍潭站,24.86504+121.21112,24.86504,121.21112
下水尾,25.06973+121.26122,25.06973,121.26122
金陵華城,24.92713+121.22751,24.92713,121.22751
柑子園,24.91844+121.23028,24.91844,121.23028
大牛欄,25.06086+121.23461,25.06086,121.23461
東勢國小,24.91164+121.23181,24.91164,121.23181
尖山活動中心,24.94659+121.34277,24.94659,121.34277
永興橋,24.96903+121.27633,24.96903,121.27633
中山東路口,24.95646+121.23186,24.95646,121.23186
泰豐街口,24.97055+121.27559,24.97055,121.27559
新興高中,24.97504+121.27229,24.97504,121.27229
長興活動中心,25.06689+121.26965,25.06689,121.26965
永樂橋,24.93633+121.26863,24.93633,121.26863
竹巷,24.94374+121.279,24.94374,121.279
新興力霸街口,24.95257+121.29034,24.95257,121.29034
今日飯店,24.99086+121.31419,24.99086,121.31419
鴻福寺,24.9961+121.31235,24.9961,121.31235
平興國中,24.95094+121.20665,24.95094,121.20665
北門國小,25.00588+121.30871,25.00588,121.30871
文昌國中,25.00997+121.30811,25.00997,121.30811
瓦斯公司,25.0136+121.30952,25.0136,121.30952
大興路口,25.01513+121.30924,25.01513,121.30924
永吉新村,25.01682+121.30896,25.01682,121.30896
煉油廠,25.03066+121.30417,25.03066,121.30417
下社,24.98926+121.34544,24.98926,121.34544
台森公司,24.98868+121.34666,24.98868,121.34666
合家歡社區,24.98797+121.34782,24.98797,121.34782
白馬社區,24.9878+121.35003,24.9878,121.35003
中壢婦幼館,24.95921+121.20483,24.95921,121.20483
中華窯業,24.99025+121.35716,24.99025,121.35716
福源國小,24.9885+121.35798,24.9885,121.35798
石雲岩,24.98857+121.36111,24.98857,121.36111
石雲寺,24.98862+121.36287,24.98862,121.36287
中一堂,24.98942+121.36867,24.98942,121.36867
圓光橋,24.98901+121.36948,24.98901,121.36948
福山宮,24.98824+121.3725,24.98824,121.3725
龍安國小一,24.99276+121.2733,24.99276,121.2733
關西高中,24.78842+121.1851,24.78842,121.1851
志廣路口,24.9612+121.20753,24.9612,121.20753
玉豐新城,24.79334+121.18799,24.79334,121.18799
南華街,24.99175+121.30788,24.99175,121.30788
三座屋,24.97335+121.19875,24.97335,121.19875
大皇冠社區,25.05474+121.15805,25.05474,121.15805
埔心國小對面,25.04944+121.22395,25.04944,121.22395
三塊厝(埔心村),25.03883+121.22888,25.03883,121.22888
下埔(五權村),25.03448+121.2306,25.03448,121.2306
五塊厝(萊爾富附近),25.02098+121.23074,25.02098,121.23074
埔心(裕興加油站),25.05229+121.22405,25.05229,121.22405
中正東路平安路口,25.05986+121.2094,25.05986,121.2094
華南銀行,25.06257+121.20134,25.06257,121.20134
環西站,24.96442+121.21127,24.96442,121.21127
桃禧航空城酒店,25.06215+121.17554,25.06215,121.17554
南竹南昌路口,25.04291+121.28696,25.04291,121.28696
星河社區,25.04141+121.29176,25.04141,121.29176
甘蔗園橋,25.03535+121.30219,25.03535,121.30219
博愛街口,25.02357+121.26221,25.02357,121.26221
中油街,25.03128+121.23295,25.03128,121.23295
埔心市場,24.91563+121.18424,24.91563,121.18424
真鑽社區,24.9225+121.17699,24.9225,121.17699
歐洲之星,25.05806+121.297,25.05806,121.297
宏國大樓,24.96512+121.21341,24.96512,121.21341
快樂GO社區,25.05822+121.29511,25.05822,121.29511
天悅社區,25.05691+121.29501,25.05691,121.29501
五福宮,25.05368+121.29475,25.05368,121.29475
南崁高中,25.0524+121.29675,25.0524,121.29675
南崁市場,25.04794+121.29377,25.04794,121.29377
新埔國宅,25.02015+121.30825,25.02015,121.30825
台北小城,24.99376+121.36297,24.99376,121.36297
長庚大學,25.0327+121.38984,25.0327,121.38984
源昇公司,25.08519+121.29018,25.08519,121.29018
公溝,25.08507+121.2934,25.08507,121.2934
聯邦公司,25.08448+121.29483,25.08448,121.29483
家畜市場,25.08379+121.29689,25.08379,121.29689
下外社,25.08354+121.30152,25.08354,121.30152
外社,25.0834+121.30249,25.0834,121.30249
外社國小,25.08219+121.30656,25.08219,121.30656
草仔崎,25.08095+121.31057,25.08095,121.31057
頂社,25.07869+121.31658,25.07869,121.31658
社口,25.07619+121.31742,25.07619,121.31742
上頂社,25.07499+121.32166,25.07499,121.32166
第一水上樂園,25.07282+121.32363,25.07282,121.32363
炭窯,25.06671+121.33035,25.06671,121.33035
中豐北路口,24.96626+121.22131,24.96626,121.22131
赤塗崎,25.0677+121.33518,25.0677,121.33518
憲訓中心(埤寮),25.06023+121.36228,25.06023,121.36228
憲訓中心,25.05992+121.36223,25.05992,121.36223
公西,25.06255+121.36144,25.06255,121.36144
南山路口,25.05019+121.29157,25.05019,121.29157
僑愛國小(金蘭醬油博物館),24.91913+121.29173,24.91913,121.29173
